[{"id": "ACL000BARA9", "lat": 17.591, "lon": -61.821, "alt": 5.0, "name": "BARBUDA"}, {"id": "ACM00078861", "lat": 17.1167, "lon": -61.7833, "alt": 10.0, "name": "COOLIDGE FIELD   ANTIGUA (AUX."}, {"id": "ACU55-00189", "lat": 18.6, "lon": -63.47, "alt": 10.0, "name": "SOMBRERO"}, {"id": "ACU55-00190", "lat": 18.6, "lon": -63.47, "alt": 12.0, "name": "SOMBRERO"}, {"id": "ACU55-00191", "lat": 18.6, "lon": -63.47, "alt": 14.0, "name": "SOMBRERO"}, {"id": "ACU55-00192", "lat": 18.6, "lon": -63.47, "alt": 16.0, "name": "SOMBRERO"}, {"id": "ACU55-00193", "lat": 18.6, "lon": -63.47, "alt": 9.0, "name": "SOMBRERO"}, {"id": "ACW00011647", "lat": 17.1333, "lon": -61.7833, "alt": 19.2, "name": "ST JOHNS"}, {"id": "AEI0000OMAA", "lat": 24.433, "lon": 54.6511, "alt": 26.8, "name": "ABU DHABI INTL"}, {"id": "AEI0000OMAB", "lat": 23.6167, "lon": 53.3833, "alt": 94.0, "name": "BUHASA"}, {"id": "AEI0000OMAD", "lat": 24.4283, "lon": 54.4581, "alt": 4.9, "name": "BATEEN"}, {"id": "AEI0000OMAH", "lat": 24.074, "lon": 52.4636, "alt": 15.2, "name": "AL HAMRA AUX"}, {"id": "AEI0000OMAJ", "lat": 24.1874, "lon": 52.614, "alt": 13.1, "name": "JEBEL DHANA"}, {"id": "AEI0000OMAL", "lat": 24.2617, "lon": 55.6092, "alt": 264.9, "name": "AL AIN INTL"}, {"id": "AEI0000OMAM", "lat": 24.2482, "lon": 54.5477, "alt": 23.2, "name": "AL DHAFRA"}, {"id": "AEI0000OMAS", "lat": 25.1462, "lon": 52.8737, "alt": 3.7, "name": "DAS ISLAND"}, {"id": "AEI0000OMAW", "lat": 24.5279, "lon": 54.9733, "alt": 27.1, "name": "SWEIHAN"}, {"id": "AEI0000OMAZ", "lat": 24.8615, "lon": 53.0778, "alt": 4.3, "name": "ZIRKU"}, {"id": "AEI0000OMDB", "lat": 25.255, "lon": 55.3643, "alt": 10.4, "name": "DUBAI INTL"}, {"id": "AEI0000OMDL", "lat": 24.5099, "lon": 52.3352, "alt": 25.0, "name": "DELMA"}, {"id": "AEI0000OMDM", "lat": 25.0268, "lon": 55.3662, "alt": 50.3, "name": "DUBAI MINHAD AB"}, {"id": "AEI0000OMFJ", "lat": 25.1122, "lon": 56.324, "alt": 46.3, "name": "FUJAIRAH INTL"}, {"id": "AEI0000OMLW", "lat": 23.65, "lon": 53.82, "alt": 115.0, "name": "LIWA AB"}, {"id": "AEI0000OMQS", "lat": 22.7764, "lon": 55.0633, "alt": 88.6, "name": "QUSAIWERA AIR BASE"}, {"id": "AEI0000OMSJ", "lat": 25.3286, "lon": 55.5172, "alt": 33.8, "name": "SHARJAH INTL"}, {"id": "AEI0000OMSN", "lat": 25.2168, "lon": 54.2338, "alt": 7.0, "name": "SIR ABU NAIR"}, {"id": "AEM00040449", "lat": 25.35, "lon": 55.383, "alt": 5.0, "name": "ASH SHARIQAH SW"}, {"id": "AEM00041226", "lat": 23.6333, "lon": 53.6333, "alt": 130.0, "name": "MEDINA ZAYED"}, {"id": "AEU041184-1", "lat": 25.62, "lon": 55.93, "alt": 31.0, "name": "RASALKHAIMAH"}, {"id": "AEU041244-1", "lat": 24.23, "lon": 55.78, "alt": 299.0, "name": "BURAIMI"}, {"id": "AFA00409120", "lat": 36.3, "lon": 68.0, "alt": 900.0, "name": "AIBACK"}, {"id": "AFA00409133", "lat": 36.6667, "lon": 68.9, "alt": 448.1, "name": "FOB KUNDUZ"}, {"id": "AFA00409151", "lat": 36.733, "lon": 69.55, "alt": 804.0, "name": "TALOQAN"}, {"id": "AFA00409240", "lat": 37.2, "lon": 67.733, "alt": 304.0, "name": "KALDAR"}, {"id": "AFA00409323", "lat": 35.267, "lon": 69.467, "alt": 1945.0, "name": "PANJSHIR"}, {"id": "AFA00409343", "lat": 35.21, "lon": 71.52, "alt": 1042.0, "name": "FOB BOSTIC"}, {"id": "AFA00409390", "lat": 34.783, "lon": 63.417, "alt": 1280.0, "name": "QADES"}, {"id": "AFA00409473", "lat": 34.4, "lon": 68.8833, "alt": 2240.0, "name": "CAMP AIRBORNE HLZ"}, {"id": "AFA00409543", "lat": 34.2667, "lon": 70.2, "alt": 1214.6, "name": "FOB CONNOLLY"}, {"id": "AFA00409584", "lat": 71.0833, "lon": 34.9167, "alt": 891.8, "name": "COP HONAKER-MIRACLE"}, {"id": "AFA00409585", "lat": 34.983, "lon": 70.9, "alt": 1020.0, "name": "CAMP BLESSING-NANGA"}, {"id": "AFA00409661", "lat": 33.883, "lon": 67.95, "alt": 3130.0, "name": "OKAK"}, {"id": "AFA00409705", "lat": 33.3667, "lon": 69.4167, "alt": 2019.9, "name": "COP WILDERNESS"}, {"id": "AFA00409706", "lat": 33.8, "lon": 69.8167, "alt": 1951.9, "name": "FOB CHAMKANI"}, {"id": "AFA00409713", "lat": 33.35, "lon": 69.7333, "alt": 1383.2, "name": "FOB CLARK"}, {"id": "AFA00409731", "lat": 32.233, "lon": 62.967, "alt": 724.0, "name": "BACKWA"}, {"id": "AFA00409739", "lat": 32.133, "lon": 63.433, "alt": 840.0, "name": "DELARAM"}, {"id": "AFA00409763", "lat": 31.65, "lon": 64.96, "alt": 916.0, "name": "SAKARI KAREZ"}, {"id": "AFA00409765", "lat": 32.4, "lon": 64.7, "alt": 1110.0, "name": "FOB EDINBURGH"}, {"id": "AFA00409775", "lat": 32.9333, "lon": 65.5667, "alt": 1261.9, "name": "FOB TINSLEY"}, {"id": "AFA00409781", "lat": 31.5, "lon": 64.333, "alt": 787.0, "name": "LASHKARGAH"}, {"id": "AFA00409793", "lat": 31.967, "lon": 67.05, "alt": 1902.0, "name": "FOB WOLVERINE"}, {"id": "AFA00409794", "lat": 31.8, "lon": 66.3333, "alt": 1249.7, "name": "FOB VIPER"}, {"id": "AFA00409803", "lat": 33.1167, "lon": 68.0333, "alt": 2126.0, "name": "COP ARYAN"}, {"id": "AFA00409813", "lat": 32.6333, "lon": 68.2667, "alt": 2001.9, "name": "FOB KUSAHMOND"}, {"id": "AFA00409814", "lat": 32.9, "lon": 68.5, "alt": 2141.2, "name": "SUPER FOB"}, {"id": "AFA00409843", "lat": 33.05, "lon": 69.5, "alt": 2132.0, "name": "COP SPERA"}, {"id": "AFA00409844", "lat": 32.933, "lon": 69.45, "alt": 1814.0, "name": "FOB TILLMAN"}, {"id": "AFA00409903", "lat": 31.8667, "lon": 65.85, "alt": 1136.6, "name": "FOB FRONTENAC"}, {"id": "AFA00409904", "lat": 30.9833, "lon": 66.35, "alt": 1191.2, "name": "FOB SPIN BULDAK"}, {"id": "AFA00409905", "lat": 31.5833, "lon": 65.4333, "alt": 961.9, "name": "FOB PASAB/WILSON"}, {"id": "AFA00409951", "lat": 30.283, "lon": 62.033, "alt": 550.0, "name": "CHAR-BURJACK"}, {"id": "AFA00717640", "lat": 31.483, "lon": 65.833, "alt": 1002.0, "name": "TUAV MET KANDAHAR"}, {"id": "AFI0000OABD", "lat": 34.3, "lon": 67.85, "alt": 2975.0, "name": "BEHSOOD"}, {"id": "AFI0000OABG", "lat": 36.1, "lon": 68.65, "alt": 550.0, "name": "BAGHLAN-FARM"}, {"id": "AFI0000OADF", "lat": 35.9167, "lon": 67.2833, "alt": 1350.0, "name": "DARI-SUF"}, {"id": "AFI0000OADZ", "lat": 38.4333, "lon": 70.8, "alt": 1320.0, "name": "DARWAZ"}, {"id": "AFI0000OAEM", "lat": 36.7, "lon": 71.5667, "alt": 2620.0, "name": "ISKACHEM / ESHKASHEM"}, {"id": "AFI0000OAFR", "lat": 32.3667, "lon": 62.1833, "alt": 700.0, "name": "FARAH"}, {"id": "AFI0000OAFZ", "lat": 37.1167, "lon": 70.5167, "alt": 1200.0, "name": "FAIZABAD"}, {"id": "AFI0000OAGA", "lat": 34.3167, "lon": 70.7667, "alt": 510.0, "name": "GHAZIABAD"}, {"id": "AFI0000OAGL", "lat": 32.6167, "lon": 63.6667, "alt": 1375.0, "name": "GULISTAN"}, {"id": "AFI0000OAHJ", "lat": 34.5833, "lon": 68.1, "alt": 3400.0, "name": "HAJIGAK"}, {"id": "AFI0000OAHR", "lat": 34.21, "lon": 62.2283, "alt": 977.2, "name": "HERAT"}, {"id": "AFI0000OAIX", "lat": 34.9464, "lon": 69.265, "alt": 1483.8, "name": "BAGRAM"}, {"id": "AFI0000OAJL", "lat": 34.3998, "lon": 70.4986, "alt": 566.9, "name": "JALALABAD"}, {"id": "AFI0000OAJS", "lat": 35.1333, "lon": 69.25, "alt": 1630.0, "name": "JABUL-SARAJ"}, {"id": "AFI0000OAKN", "lat": 31.5058, "lon": 65.8478, "alt": 1007.1, "name": "KANDAHAR"}, {"id": "AFI0000OALN", "lat": 34.65, "lon": 70.2167, "alt": 770.0, "name": "LAGHMAN"}, {"id": "AFI0000OAMS", "lat": 36.7069, "lon": 67.2097, "alt": 391.4, "name": "MAZAR I SHARIF"}, {"id": "AFI0000OAPG", "lat": 34.5833, "lon": 68.9833, "alt": 2114.0, "name": "PAGHMAN"}, {"id": "AFI0000OAPJ", "lat": 34.3833, "lon": 67.0333, "alt": 2710.0, "name": "PAN JAO"}, {"id": "AFI0000OAQN", "lat": 35.0, "lon": 63.1167, "alt": 914.0, "name": "QALA-I-NOW"}, {"id": "AFI0000OAQQ", "lat": 37.4167, "lon": 66.0833, "alt": 262.0, "name": "QAR-QIN"}, {"id": "AFI0000OASB", "lat": 34.5833, "lon": 69.75, "alt": 1020.0, "name": "SAROBI"}, {"id": "AFI0000OASD", "lat": 33.3913, "lon": 62.261, "alt": 1150.0, "name": "SHINDAND"}, {"id": "AFM00038930", "lat": 36.9, "lon": 68.0, "alt": 319.0, "name": "AJVADZ"}, {"id": "AFM00038946", "lat": 37.8, "lon": 70.2, "alt": 1283.0, "name": "IOL"}, {"id": "AFM00038957", "lat": 36.7, "lon": 71.6, "alt": 2524.0, "name": "ISKASIM"}, {"id": "AFM00040903", "lat": 37.083, "lon": 69.433, "alt": 480.0, "name": "KHWAJA-GHAR"}, {"id": "AFM00040905", "lat": 37.5667, "lon": 71.5, "alt": 2265.0, "name": "SHIGHNAN"}, {"id": "AFM00040908", "lat": 36.6667, "lon": 65.7167, "alt": 360.0, "name": "SHEBIRGHAN"}, {"id": "AFM00040913", "lat": 36.6667, "lon": 68.9167, "alt": 433.0, "name": "KUNDUZ"}, {"id": "AFM00040916", "lat": 37.2167, "lon": 67.4167, "alt": 300.0, "name": "HAIRATAN"}, {"id": "AFM00040921", "lat": 35.2333, "lon": 62.2833, "alt": 680.0, "name": "TURGHUNDI"}, {"id": "AFM00040922", "lat": 35.9333, "lon": 64.7667, "alt": 815.0, "name": "MIMANA"}, {"id": "AFM00040923", "lat": 35.5833, "lon": 63.3167, "alt": 470.0, "name": "BALA-MOORGHAB"}, {"id": "AFM00040925", "lat": 35.6667, "lon": 64.2667, "alt": 1300.0, "name": "QAISAR"}, {"id": "AFM00040930", "lat": 35.3167, "lon": 69.0167, "alt": 3366.0, "name": "NORTH-SALANG"}, {"id": "AFM00040931", "lat": 35.3, "lon": 69.0667, "alt": 3172.0, "name": "SOUTH-SALANG"}, {"id": "AFM00040935", "lat": 34.65, "lon": 61.5833, "alt": 800.0, "name": "ISLAM-QALA"}, {"id": "AFM00040940", "lat": 34.3667, "lon": 63.15, "alt": 1298.0, "name": "OBE"}, {"id": "AFM00040949", "lat": 34.6333, "lon": 69.05, "alt": 1905.0, "name": "KARIZIMIR"}, {"id": "AFM00040950", "lat": 34.1, "lon": 69.05, "alt": 1935.0, "name": "LOGAR"}, {"id": "AFM00040976", "lat": 32.167, "lon": 65.1, "alt": 1000.0, "name": "KAJAKI"}, {"id": "AFM00040977", "lat": 32.6167, "lon": 65.8667, "alt": 1350.0, "name": "TIRIN KOT"}, {"id": "AFM00040980", "lat": 32.8333, "lon": 67.7833, "alt": 2000.0, "name": "MOKUR"}, {"id": "AFM00040984", "lat": 32.9167, "lon": 69.1333, "alt": 2262.0, "name": "URGOON"}, {"id": "AFM00040996", "lat": 30.4333, "lon": 63.3, "alt": 590.0, "name": "DESHOO"}, {"id": "AFW00000472", "lat": 43.0667, "lon": 74.4667, "alt": 637.0, "name": "KYRGYZSTAN US MIL BISHKEK"}, {"id": "AGA00604850", "lat": 35.767, "lon": -0.8, "alt": 104.0, "name": "CAP FALCON"}, {"id": "AGA00605050", "lat": 35.717, "lon": -0.717, "alt": 111.0, "name": "ORAN/TAFAROUI"}, {"id": "AGA00606080", "lat": 28.133, "lon": 6.833, "alt": 387.0, "name": "BORDJ OMAR DRISS"}, {"id": "AGA00749269", "lat": 32.1, "lon": 6.45, "alt": 136.0, "name": "HASSI MESSAOUD NE"}, {"id": "AGA00749273", "lat": 36.133, "lon": 6.617, "alt": 770.0, "name": "EL GUERRAH"}, {"id": "AGA00749276", "lat": 36.133, "lon": 7.817, "alt": 932.0, "name": "MDAOUROUCH WEST"}, {"id": "AGA00749277", "lat": 36.083, "lon": 5.8, "alt": 923.0, "name": "MECHTA BOU RZAM S"}, {"id": "AGA00749278", "lat": 35.683, "lon": 0.183, "alt": 100.0, "name": "ER ROMRI SOUTHWEST"}, {"id": "AGA00749282", "lat": 36.117, "lon": 6.35, "alt": 754.0, "name": "TELERGHMA"}, {"id": "AGI0000DAAB", "lat": 36.5036, "lon": 2.8142, "alt": 163.1, "name": "BLIDA"}, {"id": "AGI0000DAAF", "lat": 26.9667, "lon": 1.0833, "alt": 309.0, "name": "AOULEF"}, {"id": "AGI0000DAAK", "lat": 36.5458, "lon": 2.8761, "alt": 102.1, "name": "BOUFARIK"}, {"id": "AGI0000DAAP", "lat": 26.7235, "lon": 8.6227, "alt": 541.9, "name": "ILLIZI TAKHAMALT"}, {"id": "AGI0000DAAQ", "lat": 35.5254, "lon": 2.8787, "alt": 649.8, "name": "AIN OUSSERA"}, {"id": "AGI0000DAAS", "lat": 36.1781, "lon": 5.3245, "alt": 1050.0, "name": "SETIF AIN ARNAT"}, {"id": "AGI0000DAAV", "lat": 36.7951, "lon": 5.8736, "alt": 11.0, "name": "FERHAT ABBAS AIRPORT"}, {"id": "AGI0000DABJ", "lat": 36.8, "lon": 5.8833, "alt": 10.1, "name": "JIJEL"}, {"id": "AGI0000DABP", "lat": 36.9333, "lon": 6.95, "alt": 7.0, "name": "SKIKDA"}, {"id": "AGI0000DABS", "lat": 35.4316, "lon": 8.1207, "alt": 811.1, "name": "CHEIKH LARBI TEBESSI"}, {"id": "AGI0000DABT", "lat": 35.7521, "lon": 6.3086, "alt": 822.0, "name": "BATNA"}, {"id": "AGI0000DAEF", "lat": 28.447, "lon": 7.5524, "alt": 480.1, "name": "TIN FOUYE"}, {"id": "AGI0000DAFH", "lat": 32.9304, "lon": 3.3115, "alt": 774.2, "name": "HASSI R MEL"}, {"id": "AGI0000DAMH", "lat": 29.2333, "lon": 6.4833, "alt": 259.0, "name": "HAMRA"}, {"id": "AGI0000DAOB", "lat": 35.3411, "lon": 1.4631, "alt": 989.1, "name": "BOU CHEKIF"}, {"id": "AGI0000DAOH", "lat": 34.82, "lon": -1.77, "alt": 426.0, "name": "MAGHNIA"}, {"id": "AGI0000DAOL", "lat": 35.5424, "lon": -0.5323, "alt": 111.9, "name": "TAFARAOUI"}, {"id": "AGI0000DAOM", "lat": 35.3833, "lon": 0.1333, "alt": 492.0, "name": "MASCARA"}, {"id": "AGI0000DAOV", "lat": 35.2077, "lon": 0.1471, "alt": 513.9, "name": "GHRISS"}, {"id": "AGI0000DATG", "lat": 19.57, "lon": 5.75, "alt": 400.0, "name": "IN GUEZZAM"}, {"id": "AGI0000DATM", "lat": 21.3333, "lon": 0.95, "alt": 398.0, "name": "BORDJ MOKHTAR"}, {"id": "AGI0000DAUI", "lat": 27.251, "lon": 2.512, "alt": 273.1, "name": "IN SALAH"}, {"id": "AGI0000DAUK", "lat": 33.0678, "lon": 6.0887, "alt": 85.0, "name": "SIDI MAHDI"}, {"id": "AGI0000DAUT", "lat": 29.2371, "lon": 0.276, "alt": 313.0, "name": "TIMIMOUN"}, {"id": "AGM00060350", "lat": 37.083, "lon": 6.45, "alt": -999.0, "name": "BOGUS ALGERIAN"}, {"id": "AGM00060353", "lat": 36.8167, "lon": 5.8833, "alt": 6.0, "name": "JIJEL-PORT"}, {"id": "AGM00060357", "lat": 36.967, "lon": 7.8, "alt": 156.0, "name": "ANNABA NORTH"}, {"id": "AGM00060367", "lat": 36.9, "lon": 8.45, "alt": 13.0, "name": "EL-KALA"}, {"id": "AGM00060368", "lat": 36.75, "lon": 8.0833, "alt": 4.0, "name": "TARF"}, {"id": "AGM00060369", "lat": 36.7667, "lon": 3.1, "alt": 12.0, "name": "ALGER-PORT"}, {"id": "AGM00060370", "lat": 36.7167, "lon": 3.1, "alt": 89.0, "name": "KOUBA"}, {"id": "AGM00060371", "lat": 36.7833, "lon": 3.0333, "alt": 171.9, "name": "OUED KORICHE"}, {"id": "AGM00060372", "lat": 36.7833, "lon": 3.0, "alt": 54.6, "name": "BOUZAREAH"}, {"id": "AGM00060373", "lat": 36.7, "lon": 2.8833, "alt": 70.1, "name": "MEHELMA"}, {"id": "AGM00060374", "lat": 36.7833, "lon": 2.8833, "alt": 33.0, "name": "AIN BENAIN"}, {"id": "AGM00060376", "lat": 36.7833, "lon": 3.25, "alt": 58.0, "name": "BORDJ-EL-BAHRI"}, {"id": "AGM00060379", "lat": 36.7667, "lon": 3.3333, "alt": 162.1, "name": "REGHAIA"}, {"id": "AGM00060380", "lat": 36.6167, "lon": 2.9167, "alt": 17.1, "name": "TESSALA EL MERDJA"}, {"id": "AGM00060381", "lat": 36.7167, "lon": 3.15, "alt": 51.0, "name": "EL HARRACH"}, {"id": "AGM00060387", "lat": 36.9167, "lon": 3.95, "alt": 8.0, "name": "DELLYS"}, {"id": "AGM00060393", "lat": 36.7, "lon": 3.2, "alt": 148.1, "name": "DAR EL BEIDA VILLE"}, {"id": "AGM00060394", "lat": 36.6833, "lon": 3.1, "alt": 124.4, "name": "BARAKI"}, {"id": "AGM00060395", "lat": 36.7, "lon": 4.1333, "alt": 153.0, "name": "TIZI-OUZOU"}, {"id": "AGM00060401", "lat": 36.75, "lon": 5.1, "alt": 4.0, "name": "BEJAIA-PORT"}, {"id": "AGM00060403", "lat": 36.4667, "lon": 7.4667, "alt": 228.0, "name": "GUELMA"}, {"id": "AGM00060405", "lat": 36.5, "lon": 7.7167, "alt": 111.0, "name": "BOUCHEGOUF"}, {"id": "AGM00060415", "lat": 36.2833, "lon": 3.6667, "alt": 752.0, "name": "AIN-BESSAM"}, {"id": "AGM00060417", "lat": 36.3833, "lon": 3.8833, "alt": 560.0, "name": "BOUIRA"}, {"id": "AGM00060420", "lat": 36.267, "lon": 6.683, "alt": 583.0, "name": "LE KHROUB"}, {"id": "AGM00060421", "lat": 35.8667, "lon": 7.1167, "alt": 891.0, "name": "OUM EL BOUAGHI"}, {"id": "AGM00060423", "lat": 36.25, "lon": 7.95, "alt": 831.0, "name": "SOUK AHRAS"}, {"id": "AGM00060430", "lat": 36.3, "lon": 2.2333, "alt": 721.0, "name": "MILIANA"}, {"id": "AGM00060437", "lat": 36.2833, "lon": 2.7333, "alt": 1036.0, "name": "MEDEA"}, {"id": "AGM00060452", "lat": 35.8167, "lon": -0.2667, "alt": 4.0, "name": "ARZEW"}, {"id": "AGM00060457", "lat": 35.8833, "lon": 0.1167, "alt": 138.0, "name": "MOSTAGANEM"}, {"id": "AGM00060461", "lat": 35.7, "lon": -0.65, "alt": 22.0, "name": "ORAN-PORT"}, {"id": "AGM00060465", "lat": 35.933, "lon": 2.75, "alt": 635.0, "name": "BOGHAR NORTH"}, {"id": "AGM00060467", "lat": 35.6667, "lon": 4.5, "alt": 442.0, "name": "M'SILA"}, {"id": "AGM00060471", "lat": 35.3333, "lon": 5.3333, "alt": 461.0, "name": "BARIKA"}, {"id": "AGM00060476", "lat": 35.4667, "lon": 7.0833, "alt": 987.0, "name": "KHENCHELLA"}, {"id": "AGM00060492", "lat": 35.75, "lon": 0.6167, "alt": 94.0, "name": "RELIZANE"}, {"id": "AGM00060506", "lat": 35.6, "lon": 0.3, "alt": 476.0, "name": "MASCARA-MATEMORE"}, {"id": "AGM00060514", "lat": 35.1667, "lon": 2.3167, "alt": 801.0, "name": "KSAR CHELLALA"}, {"id": "AGM00060518", "lat": 35.3, "lon": -1.35, "alt": 70.0, "name": "BENI-SAF"}, {"id": "AGM00060520", "lat": 35.2, "lon": -0.6167, "alt": 476.0, "name": "SIDI-BEL-ABBES"}, {"id": "AGM00060536", "lat": 34.8667, "lon": 0.15, "alt": 752.0, "name": "SAIDA"}, {"id": "AGM00060557", "lat": 33.2667, "lon": -0.3, "alt": 1166.0, "name": "NAAMA"}, {"id": "AGM00060560", "lat": 32.7667, "lon": -0.6, "alt": 1059.0, "name": "AIN-SEFRA"}, {"id": "AGM00060565", "lat": 32.467, "lon": 3.667, "alt": 533.0, "name": "BENI ISUGEN"}, {"id": "AGM00060585", "lat": 29.0731, "lon": 2.2092, "alt": 464.0, "name": "KRECHBA"}, {"id": "AGM00060593", "lat": 29.1667, "lon": -5.2333, "alt": 565.0, "name": "HASSI KHEBI"}, {"id": "AGM00060595", "lat": 29.1667, "lon": -0.3, "alt": 511.0, "name": "TALMINIE"}, {"id": "AGM00060602", "lat": 30.1333, "lon": -2.1667, "alt": 505.0, "name": "BENI-ABBES"}, {"id": "AGM00060603", "lat": 29.7167, "lon": 6.7, "alt": 252.0, "name": "RHOURD NOUSS"}, {"id": "AGM00060605", "lat": 29.4167, "lon": -3.25, "alt": 550.0, "name": "TABELBALA"}, {"id": "AGM00060612", "lat": 22.05, "lon": 8.5833, "alt": 770.0, "name": "TIRIRINE"}, {"id": "AGM00060613", "lat": 28.7, "lon": 8.9333, "alt": 610.0, "name": "OUHANET"}, {"id": "AGM00060617", "lat": 27.3167, "lon": 3.7167, "alt": 354.0, "name": "TAMESGUIDA"}, {"id": "AGM00060633", "lat": 23.2167, "lon": 2.5833, "alt": 443.0, "name": "IN ZIZA"}, {"id": "AGM00060639", "lat": 28.4333, "lon": 7.55, "alt": 471.0, "name": "TINFOUYE"}, {"id": "AGM00060650", "lat": 26.4167, "lon": 5.3667, "alt": 614.0, "name": "AMGUID"}, {"id": "AGM00060660", "lat": 25.2667, "lon": 3.7333, "alt": 556.0, "name": "ARAK"}, {"id": "AGM00060662", "lat": 25.8167, "lon": 8.1833, "alt": 1291.0, "name": "FADNOUNE"}, {"id": "AGM00060663", "lat": 24.7167, "lon": 4.65, "alt": 1054.0, "name": "MOULAY LACHEN"}, {"id": "AGM00060664", "lat": 24.8333, "lon": 8.3167, "alt": 1104.0, "name": "BORDJ HAOUS"}, {"id": "AGM00060667", "lat": 24.6, "lon": 10.2167, "alt": 719.0, "name": "TINALKOUM"}, {"id": "AGM00060672", "lat": 24.2167, "lon": 5.5333, "alt": 1343.0, "name": "MERTOUEK"}, {"id": "AGM00060673", "lat": 23.0333, "lon": 7.8667, "alt": 1179.0, "name": "TADANTE"}, {"id": "AGM00060676", "lat": 23.4833, "lon": 11.2333, "alt": 912.0, "name": "IN-EZZANE"}, {"id": "AGM00060677", "lat": 25.3333, "lon": 7.8, "alt": 1240.0, "name": "AFARA"}, {"id": "AGM00060678", "lat": 23.817, "lon": 5.15, "alt": 1006.0, "name": "IN AMGUEL"}, {"id": "AGM00060679", "lat": 23.2667, "lon": 5.6333, "alt": 2710.0, "name": "ASSEKREM"}, {"id": "AGM00060681", "lat": 21.6833, "lon": 7.1333, "alt": 573.0, "name": "OUED TAHAGGARET"}, {"id": "AGM00060682", "lat": 23.1833, "lon": 6.7667, "alt": 1105.0, "name": "TINTARABINE"}, {"id": "AGM00060685", "lat": 22.3167, "lon": 1.1167, "alt": 392.0, "name": "BIDON 5"}, {"id": "AGM00060689", "lat": 20.4167, "lon": 1.8, "alt": 608.7, "name": "TIMIAOUINE"}, {"id": "AGM00060691", "lat": 19.4333, "lon": 4.65, "alt": 477.0, "name": "ANESBARAKA"}, {"id": "AGM00060693", "lat": 20.5667, "lon": 6.1167, "alt": 471.0, "name": "IN ATEI"}, {"id": "AGM00060694", "lat": 20.9667, "lon": 7.45, "alt": 517.0, "name": "IN AZAOUA"}, {"id": "AGM00060695", "lat": 19.9667, "lon": 2.9833, "alt": 734.9, "name": "TIN ZAOUATENE"}, {"id": "AGM00074928", "lat": 36.2, "lon": 5.967, "alt": 859.0, "name": "MECHTA MEHBOUB SE"}, {"id": "AGU0369-0-1", "lat": 36.78, "lon": 3.07, "alt": 59.0, "name": "ALGIERS-VILLE/UNIVERSITE"}, {"id": "AGU0395-0-1", "lat": 36.72, "lon": 4.05, "alt": 222.0, "name": "TIZIOUZOU"}, {"id": "AGU0395-1-1", "lat": 36.63, "lon": 4.2, "alt": 942.0, "name": "FORTNATIONAL"}, {"id": "AGU0419-0-1", "lat": 36.37, "lon": 6.62, "alt": 660.0, "name": "CONSTANTINE"}, {"id": "AGU0425-0-1", "lat": 36.17, "lon": 1.34, "alt": 112.0, "name": "ORLEANSVILLE(CHLEF)"}, {"id": "AGU0445-0-1", "lat": 36.18, "lon": 5.4, "alt": 1081.0, "name": "SETIF"}, {"id": "AGU0475-0-1", "lat": 35.42, "lon": 8.12, "alt": 863.0, "name": "TEBESSA"}, {"id": "AGU0517-0-1", "lat": 35.1, "lon": -1.85, "alt": 83.0, "name": "NEMOURS(GHAZAOUET)"}, {"id": "AGU0525-0-1", "lat": 34.85, "lon": 5.72, "alt": 125.0, "name": "BISKRA"}, {"id": "AGU0590-0-1", "lat": 30.55, "lon": 3.07, "alt": 394.0, "name": "EL-GOLEA"}, {"id": "AGU060360-1", "lat": 36.83, "lon": 7.82, "alt": 4.0, "name": "ANNABA"}, {"id": "AGU060559-1", "lat": 33.5, "lon": 6.78, "alt": 69.0, "name": "EL-OUED"}, {"id": "AGU060566-1", "lat": 32.4, "lon": 3.8, "alt": 469.0, "name": "GHARDAIA"}, {"id": "AGU060581-1", "lat": 31.67, "lon": 6.15, "alt": 144.0, "name": "HASSI-MESSAOUD"}, {"id": "AGUG0060355", "lat": 37.08, "lon": 6.47, "alt": 195.0, "name": "SKIDDACAPBOUGAROUNI"}, {"id": "AGUG0060400", "lat": 36.78, "lon": 5.1, "alt": 225.0, "name": "BEJAIACAPCARBON"}, {"id": "AGUG0060461", "lat": 35.7, "lon": 0.65, "alt": 53.0, "name": "ORAN"}, {"id": "AGUG0060485", "lat": 35.77, "lon": 0.8, "alt": 78.0, "name": "ORANCAPFALCON"}, {"id": "AGUG0060517", "lat": 35.1, "lon": 1.85, "alt": 83.0, "name": "NEMOURS"}, {"id": "AGUG0060520", "lat": 35.2, "lon": 0.63, "alt": 476.0, "name": "SIDIBELABBESS"}, {"id": "AGUG0060545", "lat": 33.8, "lon": 2.89, "alt": 767.0, "name": "LAGHOUAT"}, {"id": "AGUG0060550", "lat": 33.68, "lon": 1.0, "alt": 1320.0, "name": "GERYVILLE"}, {"id": "AGUG0060656", "lat": 27.67, "lon": 9.33, "alt": 431.0, "name": "TINDOUF"}, {"id": "AJA00375780", "lat": 41.55, "lon": 46.417, "alt": 213.0, "name": "DANACHY"}, {"id": "AJI0000UBBG", "lat": 40.7377, "lon": 46.3176, "alt": 330.1, "name": "GYANDZHA"}, {"id": "AJI0000UBBN", "lat": 39.1888, "lon": 45.4584, "alt": 872.6, "name": "NAKHCHIVAN"}, {"id": "AJI0000UBBQ", "lat": 40.8167, "lon": 47.7333, "alt": 338.0, "name": "GABALA"}, {"id": "AJI0000UBBY", "lat": 41.55, "lon": 46.6667, "alt": 389.8, "name": "ZAKATALA"}, {"id": "AJM00037575", "lat": 41.6667, "lon": 46.65, "alt": 490.0, "name": "ZAKATALA"}, {"id": "AJM00037579", "lat": 41.7, "lon": 46.8, "alt": 1746.0, "name": "ALIBEK"}, {"id": "AJM00037605", "lat": 41.3, "lon": 45.6, "alt": 9999.0, "name": "BOGDANOVKA"}, {"id": "AJM00037636", "lat": 41.3, "lon": 45.4667, "alt": 421.0, "name": "JEYRANCHEL"}, {"id": "AJM00037639", "lat": 41.1333, "lon": 45.4167, "alt": 333.0, "name": "AGSTAPHA AIRPORT"}, {"id": "AJM00037642", "lat": 41.1, "lon": 43.55, "alt": 333.0, "name": "TOVUZ"}, {"id": "AJM00037656", "lat": 41.2, "lon": 46.8, "alt": 9999.0, "name": "ADJINAURSKAYA_STEP'"}, {"id": "AJM00037661", "lat": 41.2167, "lon": 47.1667, "alt": 641.0, "name": "SHAKI"}, {"id": "AJM00037668", "lat": 41.0667, "lon": 47.4667, "alt": 598.0, "name": "OGUZ"}, {"id": "AJM00037673", "lat": 41.5, "lon": 48.8, "alt": 27.0, "name": "HACMAS"}, {"id": "AJM00037674", "lat": 41.2, "lon": 48.2, "alt": 999.0, "name": "KRIC"}, {"id": "AJM00037675", "lat": 41.3667, "lon": 48.5167, "alt": 552.0, "name": "GUBA"}, {"id": "AJM00037676", "lat": 41.1833, "lon": 48.1333, "alt": 2305.0, "name": "KHINALIG"}, {"id": "AJM00037677", "lat": 41.0, "lon": 48.7, "alt": 1107.0, "name": "KHALTAN"}, {"id": "AJM00037679", "lat": 41.1, "lon": 49.2, "alt": -26.0, "name": "SIASAN'"}, {"id": "AJM00037729", "lat": 40.6833, "lon": 45.8167, "alt": 1476.0, "name": "GADABAY"}, {"id": "AJM00037734", "lat": 40.8333, "lon": 46.0333, "alt": 410.0, "name": "SHAMKIR"}, {"id": "AJM00037735", "lat": 40.7167, "lon": 46.4167, "alt": 311.0, "name": "GANDJA"}, {"id": "AJM00037740", "lat": 41.0, "lon": 47.9, "alt": 682.0, "name": "GABALJ"}, {"id": "AJM00037742", "lat": 40.9, "lon": 47.3, "alt": 313.0, "name": "ORDJONIKIDZE,ZERNOSOVHOZ"}, {"id": "AJM00037744", "lat": 40.8, "lon": 47.0, "alt": 94.0, "name": "MIGECAUR"}, {"id": "AJM00037747", "lat": 40.6, "lon": 47.2, "alt": 15.0, "name": "EVLAH"}, {"id": "AJM00037749", "lat": 40.65, "lon": 47.75, "alt": 95.0, "name": "GOYCHAY"}, {"id": "AJM00037750", "lat": 40.7833, "lon": 48.1333, "alt": 550.0, "name": "ISMAILLY"}, {"id": "AJM00037753", "lat": 40.9, "lon": 48.9, "alt": 1082.0, "name": "ALTY-AGAC"}, {"id": "AJM00037756", "lat": 40.5333, "lon": 48.9333, "alt": 755.0, "name": "MARAZA"}, {"id": "AJM00037759", "lat": 40.6333, "lon": 48.6333, "alt": 892.0, "name": "SHAMAKHY"}, {"id": "AJM00037761", "lat": 40.917, "lon": 49.05, "alt": 525.0, "name": "KHIZY"}, {"id": "AJM00037769", "lat": 40.6, "lon": 49.6, "alt": -19.0, "name": "SUGAIT"}, {"id": "AJM00037816", "lat": 40.4667, "lon": 46.0833, "alt": 1658.0, "name": "DASHKASAN"}, {"id": "AJM00037825", "lat": 40.4167, "lon": 46.3333, "alt": 1602.0, "name": "GYOY-GYOL"}, {"id": "AJM00037831", "lat": 40.35, "lon": 47.0167, "alt": 227.0, "name": "TAR-TAR"}, {"id": "AJM00037832", "lat": 40.4, "lon": 47.1, "alt": 69.0, "name": "BARDA"}, {"id": "AJM00037835", "lat": 40.2, "lon": 47.2167, "alt": -5.0, "name": "ZARDAB"}, {"id": "AJM00037843", "lat": 40.0167, "lon": 48.4667, "alt": -15.0, "name": "SABIRABAD"}, {"id": "AJM00037844", "lat": 40.3333, "lon": 48.1667, "alt": 4.0, "name": "KURDAMIR"}, {"id": "AJM00037849", "lat": 40.0167, "lon": 48.9167, "alt": -5.0, "name": "GAZIMAMMAD AERODROME"}, {"id": "AJM00037850", "lat": 40.35, "lon": 49.833, "alt": 5.0, "name": "BAKU (OBSERVATORY)"}, {"id": "AJM00037851", "lat": 40.4167, "lon": 49.7833, "alt": 85.0, "name": "BAKU (KHURDALAN)"}, {"id": "AJM00037852", "lat": 40.3667, "lon": 49.7667, "alt": 224.0, "name": "SHUBANY"}, {"id": "AJM00037853", "lat": 40.5, "lon": 49.9833, "alt": -5.0, "name": "BAKU/ZABRAT AIRPORT"}, {"id": "AJM00037856", "lat": 40.3, "lon": 49.7, "alt": -11.0, "name": "PUTA"}, {"id": "AJM00037860", "lat": 40.5333, "lon": 50.0, "alt": 28.0, "name": "MASHTAGA"}, {"id": "AJM00037861", "lat": 40.2333, "lon": 50.8167, "alt": -15.0, "name": "NEFT DASHLARI"}, {"id": "AJM00037866", "lat": 40.5, "lon": 50.3, "alt": -26.0, "name": "ARTEMA,OSTROV"}, {"id": "AJM00037888", "lat": 39.5, "lon": 45.8, "alt": 3282.0, "name": "SISIANSKIY,PEREVAL"}, {"id": "AJM00037893", "lat": 39.9833, "lon": 46.75, "alt": 252.0, "name": "AGDAM"}, {"id": "AJM00037895", "lat": 39.9833, "lon": 46.75, "alt": 828.0, "name": "KHANKANDY"}, {"id": "AJM00037898", "lat": 39.65, "lon": 46.5333, "alt": 1099.0, "name": "LACHIN"}, {"id": "AJM00037899", "lat": 39.7667, "lon": 46.75, "alt": 1355.0, "name": "SHUSHA"}, {"id": "AJM00037901", "lat": 39.8, "lon": 47.1, "alt": 414.0, "name": "MARTUNY"}, {"id": "AJM00037902", "lat": 39.8, "lon": 47.5, "alt": 157.0, "name": "MOL'SKAYA,STEP'"}, {"id": "AJM00037905", "lat": 39.8, "lon": 47.6, "alt": 72.0, "name": "ZDANOVSK"}, {"id": "AJM00037913", "lat": 39.5833, "lon": 48.9667, "alt": -21.0, "name": "SALYAN"}, {"id": "AJM00037914", "lat": 39.8667, "lon": 48.05, "alt": -1.0, "name": "IMISHLY"}, {"id": "AJM00037922", "lat": 39.8, "lon": 49.6, "alt": -25.0, "name": "SVINOY,OSTROV"}, {"id": "AJM00037923", "lat": 39.97, "lon": 49.4, "alt": -18.0, "name": "ALYAT"}, {"id": "AJM00037926", "lat": 39.733, "lon": 49.6, "alt": 0.0, "name": "BYANDOVAN"}, {"id": "AJM00037946", "lat": 39.1, "lon": 46.0, "alt": 9999.0, "name": "PARAGACHAY"}, {"id": "AJM00037947", "lat": 38.95, "lon": 45.6333, "alt": 717.0, "name": "JULFA"}, {"id": "AJM00037957", "lat": 38.9167, "lon": 46.0167, "alt": 787.0, "name": "ORDUBAD"}, {"id": "AJM00037962", "lat": 39.4, "lon": 47.0, "alt": 632.0, "name": "DJEBRAIL"}, {"id": "AJM00037968", "lat": 39.0, "lon": 46.7, "alt": 313.0, "name": "MINDJEVAN"}, {"id": "AJM00037972", "lat": 39.5, "lon": 48.6, "alt": 3.0, "name": "BILASUVAR"}, {"id": "AJM00037978", "lat": 39.1, "lon": 48.6, "alt": 2.0, "name": "GEI'TEPE"}, {"id": "AJM00037981", "lat": 38.9, "lon": 48.25, "alt": 794.0, "name": "YARDIMLI"}, {"id": "AJM00037984", "lat": 38.8, "lon": 48.4, "alt": 1110.0, "name": "LERIC"}, {"id": "AJM00037985", "lat": 38.7333, "lon": 48.8333, "alt": -12.0, "name": "LANKARAN"}, {"id": "AJM00037988", "lat": 38.5, "lon": 48.633, "alt": 591.0, "name": "WEST ASTARA"}, {"id": "AJM00037989", "lat": 38.45, "lon": 48.8833, "alt": -22.0, "name": "ASTARA"}, {"id": "AJMU0020032", "lat": 40.35, "lon": 49.83, "alt": -10.0, "name": "BAKU USSR"}, {"id": "AJMU0020033", "lat": 40.9, "lon": 46.47, "alt": 91.0, "name": "GANDZHA CHAI USSR"}, {"id": "AJMU0028036", "lat": 39.6, "lon": 47.15, "alt": 431.0, "name": "KARIAGINO USSR"}, {"id": "AJU037673-1", "lat": 41.42, "lon": 48.88, "alt": 27.0, "name": "KHACHMAZAERODROME"}, {"id": "AJU037850-1", "lat": 40.35, "lon": 49.83, "alt": 47.0, "name": "BAKU(OBSERVATORY)"}, {"id": "AJU037905-1", "lat": 39.77, "lon": 47.75, "alt": 71.0, "name": "BEYLAGANAERODROME"}, {"id": "AJU037925-1", "lat": 39.4, "lon": 49.25, "alt": -24.0, "name": "NEFTCHALA"}, {"id": "AJU037978-1", "lat": 39.7, "lon": 48.6, "alt": 4.0, "name": "GYOYTAPA"}, {"id": "ALI0000LATI", "lat": 41.4147, "lon": 19.7206, "alt": 38.4, "name": "TIRANA RINAS"}, {"id": "ALM00013600", "lat": 42.1, "lon": 19.5333, "alt": 43.0, "name": "SHKODRA"}, {"id": "ALM00013601", "lat": 41.3333, "lon": 19.8, "alt": 97.0, "name": "TIRANA-LA PRAKA"}, {"id": "ALM00013610", "lat": 42.0333, "lon": 20.4167, "alt": 354.0, "name": "KUKES"}, {"id": "ALM00013611", "lat": 41.3, "lon": 19.45, "alt": 12.0, "name": "DURRES"}, {"id": "ALM00013612", "lat": 41.3, "lon": 19.467, "alt": 8.0, "name": "DURRES"}, {"id": "ALM00013619", "lat": 41.6833, "lon": 20.4333, "alt": 653.0, "name": "PESHKOPI"}, {"id": "ALM00013622", "lat": 40.4667, "lon": 19.4833, "alt": 5.0, "name": "VLORE"}, {"id": "ALM00013623", "lat": 40.5, "lon": 19.2833, "alt": 240.0, "name": "SAZAN ISLAND"}, {"id": "ALM00013624", "lat": 40.8, "lon": 19.9, "alt": 33.0, "name": "QYTETI STALIN"}, {"id": "ALM00013625", "lat": 40.0833, "lon": 20.15, "alt": 194.0, "name": "GJIROKASTRA"}, {"id": "ALM00013629", "lat": 40.6, "lon": 20.7667, "alt": 899.0, "name": "KORCA"}, {"id": "ALM00013632", "lat": 41.18, "lon": 20.13, "alt": 662.9, "name": "ELBASAN"}, {"id": "ALM00013633", "lat": 39.88, "lon": 20.0, "alt": 800.1, "name": "SARANDE"}, {"id": "ALU55-00145", "lat": 40.45, "lon": 19.45, "alt": 32.0, "name": "VALONA"}, {"id": "ALU55-00146", "lat": 40.45, "lon": 19.45, "alt": 32.0, "name": "VALONA"}, {"id": "AMM00037608", "lat": 41.1, "lon": 43.7, "alt": 2009.0, "name": "SHURABAD"}, {"id": "AMM00037609", "lat": 41.0294, "lon": 43.8764, "alt": 2015.0, "name": "ASHOTSK"}, {"id": "AMM00037618", "lat": 41.12, "lon": 44.28, "alt": 1505.0, "name": "KALININO"}, {"id": "AMM00037627", "lat": 41.05, "lon": 44.6333, "alt": 1110.0, "name": "ODZUN"}, {"id": "AMM00037629", "lat": 41.1, "lon": 44.8, "alt": 663.0, "name": "SHNOH"}, {"id": "AMM00037682", "lat": 40.95, "lon": 43.7833, "alt": 1866.0, "name": "AMASIA"}, {"id": "AMM00037683", "lat": 40.867, "lon": 43.95, "alt": 1798.0, "name": "DZADZUR"}, {"id": "AMM00037686", "lat": 40.7833, "lon": 43.8333, "alt": 1512.0, "name": "GUMRI"}, {"id": "AMM00037689", "lat": 40.6, "lon": 44.0, "alt": 1727.0, "name": "ARTIK"}, {"id": "AMM00037693", "lat": 41.0, "lon": 44.3667, "alt": 1400.0, "name": "STEPANAVAN"}, {"id": "AMM00037694", "lat": 40.9, "lon": 44.4, "alt": 2061.0, "name": "PUSHKINSKIY,PEREVAL"}, {"id": "AMM00037695", "lat": 40.8333, "lon": 44.2667, "alt": 1555.0, "name": "SPITAK"}, {"id": "AMM00037698", "lat": 40.6, "lon": 44.5, "alt": 1986.0, "name": "ANKAVAN"}, {"id": "AMM00037699", "lat": 40.5333, "lon": 44.3833, "alt": 1892.0, "name": "APARAN"}, {"id": "AMM00037700", "lat": 40.3, "lon": 44.9, "alt": 3103.0, "name": "ERATUMBER"}, {"id": "AMM00037704", "lat": 40.8167, "lon": 44.4361, "alt": 1375.9, "name": "VANADZOR"}, {"id": "AMM00037706", "lat": 40.75, "lon": 44.8667, "alt": 1255.0, "name": "DILIJAN"}, {"id": "AMM00037708", "lat": 40.7, "lon": 44.9, "alt": 2097.0, "name": "SEMENOVKA"}, {"id": "AMM00037711", "lat": 40.9, "lon": 45.2, "alt": 733.0, "name": "IDGEVAN"}, {"id": "AMM00037713", "lat": 40.9167, "lon": 45.4667, "alt": 697.0, "name": "BERD"}, {"id": "AMM00037719", "lat": 40.5933, "lon": 45.3558, "alt": 1852.8, "name": "TCHAMBARAK"}, {"id": "AMM00037781", "lat": 40.4833, "lon": 44.1833, "alt": 3223.0, "name": "ARAGAC H/M"}, {"id": "AMM00037785", "lat": 40.2833, "lon": 44.3503, "alt": 1090.0, "name": "ASHTARAK"}, {"id": "AMM00037787", "lat": 40.1333, "lon": 43.9033, "alt": 860.8, "name": "ARMAVIR"}, {"id": "AMM00037788", "lat": 40.15, "lon": 44.3833, "alt": 854.0, "name": "YEREVAN ZVARTNOTS"}, {"id": "AMM00037791", "lat": 40.4, "lon": 44.6833, "alt": 1800.0, "name": "FANTAN"}, {"id": "AMM00037792", "lat": 40.4833, "lon": 44.75, "alt": 1761.0, "name": "HRAZDAN"}, {"id": "AMM00037801", "lat": 40.35, "lon": 45.1333, "alt": 1962.0, "name": "GAVAR"}, {"id": "AMM00037808", "lat": 40.1333, "lon": 45.2833, "alt": 1943.0, "name": "MARTUNI"}, {"id": "AMM00037815", "lat": 40.2, "lon": 45.75, "alt": 1940.0, "name": "MASRIK"}, {"id": "AMM00037871", "lat": 39.9, "lon": 44.6, "alt": 833.0, "name": "ARTASHAT"}, {"id": "AMM00037874", "lat": 39.8, "lon": 44.7, "alt": 818.0, "name": "ARARAT"}, {"id": "AMM00037876", "lat": 39.8, "lon": 45.4, "alt": 1312.0, "name": "EHEGNADZOR"}, {"id": "AMM00037878", "lat": 40.95, "lon": 45.0683, "alt": 2122.0, "name": "ANANUN IERNANTCK"}, {"id": "AMM00037882", "lat": 39.8333, "lon": 45.6833, "alt": 2075.0, "name": "DJERMUK"}, {"id": "AMM00037897", "lat": 39.5333, "lon": 46.0167, "alt": 1581.0, "name": "SISIAN"}, {"id": "AMM00037953", "lat": 39.5108, "lon": 46.3472, "alt": 1550.1, "name": "GORIS"}, {"id": "AMM00037958", "lat": 38.9, "lon": 46.25, "alt": 628.0, "name": "MEGRI"}, {"id": "AMM00037959", "lat": 39.2, "lon": 46.4, "alt": 704.0, "name": "CAFAN"}, {"id": "AMMU0020027", "lat": 40.13, "lon": 44.47, "alt": 907.0, "name": "ERIVAN USSR"}, {"id": "AMU037609-1", "lat": 40.95, "lon": 43.78, "alt": 2015.0, "name": "ASHOTSK"}, {"id": "AMU037682-1", "lat": 40.78, "lon": 43.83, "alt": 1866.0, "name": "AMASIA"}, {"id": "AMU037690-1", "lat": 40.63, "lon": 44.23, "alt": 2101.0, "name": "TCAHKAHOVIT"}, {"id": "AMU037717-1", "lat": 40.57, "lon": 45.0, "alt": 1917.0, "name": "SEVANOZERO"}, {"id": "AMU037772-1", "lat": 40.38, "lon": 43.9, "alt": 1637.0, "name": "TALIN"}, {"id": "AMU037785-1", "lat": 40.28, "lon": 44.47, "alt": 1093.0, "name": "ASHTARAK"}, {"id": "AMU037787-1", "lat": 40.13, "lon": 44.05, "alt": 865.0, "name": "ARMAVIR"}, {"id": "AMU037789-1", "lat": 40.13, "lon": 44.47, "alt": 1140.0, "name": "YEREVAN/YEREVAN-ARA"}, {"id": "AMU037872-1", "lat": 39.92, "lon": 44.82, "alt": 1064.0, "name": "URCADZOR"}, {"id": "AMU037950-1", "lat": 39.15, "lon": 46.17, "alt": 1843.0, "name": "KADJARAN"}, {"id": "AMU037953-1", "lat": 39.43, "lon": 46.4, "alt": 1477.0, "name": "GORIS"}, {"id": "AOI0000FNBC", "lat": -6.2699, "lon": 14.247, "alt": 566.9, "name": "MBANZA CONGO"}, {"id": "AOI0000FNCT", "lat": -12.4833, "lon": 13.4833, "alt": 37.8, "name": "CATUMBELA ARPT"}, {"id": "AOI0000FNGU", "lat": -11.1667, "lon": 13.85, "alt": 11.0, "name": "N GUNZA ARPT / CUANZA SUL"}, {"id": "AOI0000FNHU", "lat": -12.8089, "lon": 15.7605, "alt": 1702.9, "name": "HUAMBO"}, {"id": "AOI0000FNMO", "lat": -15.2612, "lon": 12.1468, "alt": 64.0, "name": "NAMIBE"}, {"id": "AOI0000FNSO", "lat": -6.1411, "lon": 12.3718, "alt": 4.6, "name": "SOYO"}, {"id": "AOI0000FNSU", "lat": -11.1679, "lon": 13.8475, "alt": 11.0, "name": "SUMBE"}, {"id": "AOM00066116", "lat": -5.8667, "lon": 13.4333, "alt": -999.9, "name": "NOQUI"}, {"id": "AOM00066121", "lat": -6.0333, "lon": 15.1167, "alt": 920.0, "name": "MAQUELA DO ZOMBO"}, {"id": "AOM00066136", "lat": -7.1667, "lon": 14.2667, "alt": 540.0, "name": "TOTO"}, {"id": "AOM00066172", "lat": -9.2833, "lon": 14.9167, "alt": 795.0, "name": "N'DALATANDO"}, {"id": "AOM00066187", "lat": -8.3667, "lon": 18.9333, "alt": 1180.0, "name": "CAMAXILO"}, {"id": "AOM00066210", "lat": -11.2, "lon": 13.85, "alt": 10.0, "name": "SUMBE"}, {"id": "AOM00066223", "lat": -6.2667, "lon": 14.25, "alt": 567.0, "name": "MBANZA CONGO"}, {"id": "AOM00066270", "lat": -11.4167, "lon": 15.1167, "alt": 1304.0, "name": "WAKU KUNGU (CELA)"}, {"id": "AOM00066296", "lat": -11.8667, "lon": 22.9, "alt": 1126.0, "name": "CAZOMBO"}, {"id": "AOU74-00014", "lat": -8.81, "lon": 13.25, "alt": 46.0, "name": "LUANDA ANGOLA"}, {"id": "AOU74-00015", "lat": -8.82, "lon": 13.12, "alt": 59.0, "name": "LUANDA ANGOLA"}, {"id": "AOU74-00028", "lat": -6.28, "lon": 14.88, "alt": 559.0, "name": "SAO SALVADOR DO CONGO ANGOLA"}, {"id": "AOU74-00029", "lat": -6.33, "lon": 14.78, "alt": 559.0, "name": "SAO SALVADOR DO CONGO ANGOLA"}, {"id": "AQA00749401", "lat": -14.367, "lon": -170.783, "alt": 21.0, "name": "LEONE BAY"}, {"id": "AQC00914594", "lat": -14.3333, "lon": -170.7667, "alt": 42.4, "name": "MALAELOA"}, {"id": "AQC00914902", "lat": -14.2728, "lon": -170.6922, "alt": 80.8, "name": "VAIPITO"}, {"id": "AQL000NSTP6", "lat": -14.28, "lon": -170.7, "alt": 3.0, "name": "PAGO PAGO"}, {"id": "AQM00091764", "lat": -14.3333, "lon": -170.8333, "alt": -999.9, "name": "CAPE TAPUTAPU AWS  AMERICAN SA"}, {"id": "AQM00091766", "lat": -14.3167, "lon": -170.5667, "alt": -999.9, "name": "CAPE MATATULA AWS  AMERICAN SA"}, {"id": "AQM00091768", "lat": -14.1833, "lon": -169.5, "alt": -999.9, "name": "TA'U AWS  AMERICAN SAMOA *"}, {"id": "AQW00061705", "lat": -14.3306, "lon": -170.7136, "alt": 3.7, "name": "PAGO PAGO WSO AP                       91765"}, {"id": "ARA00870321", "lat": -25.217, "lon": -68.217, "alt": 4040.0, "name": "LA CASUALIDAD"}, {"id": "ARA00870475", "lat": -24.75, "lon": -65.433, "alt": 1261.0, "name": "VAQUEROS SOUTH"}, {"id": "ARA00872141", "lat": -29.217, "lon": -67.433, "alt": 950.0, "name": "CHILECITO"}, {"id": "ARA00872201", "lat": -28.45, "lon": -65.767, "alt": 537.0, "name": "CATAMARCA"}, {"id": "ARA00874001", "lat": -32.833, "lon": -70.083, "alt": 3832.0, "name": "CRISTO REDENTOR"}, {"id": "ARA00874271", "lat": -33.467, "lon": -67.55, "alt": 504.0, "name": "LA PAZ"}, {"id": "ARA00874501", "lat": -32.183, "lon": -64.383, "alt": 547.0, "name": "EMBALSE RIO TERCER"}, {"id": "ARA00874781", "lat": -32.617, "lon": -60.183, "alt": 29.0, "name": "VICTORIA"}, {"id": "ARA00874981", "lat": -33.583, "lon": -59.4, "alt": 4.0, "name": "MAZARUCA"}, {"id": "ARA00875021", "lat": -35.15, "lon": -70.2, "alt": 2293.0, "name": "VALLE HERMOSA"}, {"id": "ARA00875121", "lat": -35.0, "lon": -67.65, "alt": 464.0, "name": "COLONIA ALVEAR"}, {"id": "ARA00875720", "lat": -34.567, "lon": -58.783, "alt": 28.0, "name": "MARIANO MORENO(AAFB)"}, {"id": "ARA00875740", "lat": -34.683, "lon": -58.65, "alt": 30.0, "name": "MORON(AAFB)"}, {"id": "ARA00875891", "lat": -34.667, "lon": -57.983, "alt": 11.0, "name": "PONTON"}, {"id": "ARA00876461", "lat": -37.533, "lon": -59.567, "alt": 232.0, "name": "LOPEZ/JUAREZ"}, {"id": "ARA00876961", "lat": -38.05, "lon": -57.55, "alt": 4.0, "name": "MAR DEL PLATA"}, {"id": "ARA00877331", "lat": -39.267, "lon": -65.617, "alt": 196.0, "name": "CHOELE-CHOEL"}, {"id": "ARA00877430", "lat": -39.383, "lon": -62.017, "alt": 6.0, "name": "FARO EL RINCON"}, {"id": "ARA00877480", "lat": -38.733, "lon": -62.167, "alt": 74.0, "name": "COMANDANTE ESPORA"}, {"id": "ARA00877580", "lat": -38.483, "lon": -58.833, "alt": 32.0, "name": "NECOCHEA AIRPORT"}, {"id": "ARA00877901", "lat": -40.783, "lon": -62.983, "alt": 40.0, "name": "PATAGONES"}, {"id": "ARA00878070", "lat": -44.05, "lon": -70.433, "alt": 720.0, "name": "JOSE DE SAN MARTIN"}, {"id": "ARA00878074", "lat": -44.033, "lon": -70.467, "alt": 800.0, "name": "JOSE SN MARTIN(JSM)"}, {"id": "ARA00878251", "lat": -42.767, "lon": -65.033, "alt": 6.0, "name": "GOLFO NUEVO"}, {"id": "ARA00878523", "lat": -46.583, "lon": -70.017, "alt": 201.0, "name": "EL DORADO (ELD)"}, {"id": "ARA00878527", "lat": -46.533, "lon": -71.0, "alt": 430.0, "name": "PERITO MORENO (PTM)"}, {"id": "ARA00879170", "lat": -51.6, "lon": -72.217, "alt": 273.0, "name": "EL TURBIO AIRPORT"}, {"id": "ARA00879491", "lat": -54.8, "lon": -64.367, "alt": 8.0, "name": "PUERTO PARRY"}, {"id": "ARA00889741", "lat": -62.983, "lon": -60.567, "alt": 8.0, "name": "DECEPTION ISLAND"}, {"id": "ARI0000SAAC", "lat": -31.2969, "lon": -57.9966, "alt": 34.1, "name": "COMODORO PIERRESTEGUI"}, {"id": "ARI0000SAAJ", "lat": -34.5459, "lon": -60.9306, "alt": 79.8, "name": "JUNIN"}, {"id": "ARI0000SAAU", "lat": -31.85, "lon": -59.0833, "alt": 43.0, "name": "VILLAGUAY"}, {"id": "ARI0000SABA", "lat": -34.5833, "lon": -58.4833, "alt": 25.0, "name": "BUENOS AIRES (OBS)"}, {"id": "ARI0000SABE", "lat": -34.5592, "lon": -58.4156, "alt": 5.5, "name": "AEROPARQUE JORGE NEWBERY"}, {"id": "ARI0000SABM", "lat": -34.5833, "lon": -58.4833, "alt": 25.0, "name": "BUENOS AIRES WEATHER CENTER"}, {"id": "ARI0000SACE", "lat": -31.4447, "lon": -64.2831, "alt": 502.0, "name": "ESCUELA DE AVIACION MILITAR"}, {"id": "ARI0000SACO", "lat": -31.3236, "lon": -64.208, "alt": 488.9, "name": "AMBROSIO L V TARAVELLA"}, {"id": "ARI0000SACP", "lat": -31.3333, "lon": -66.6, "alt": 658.0, "name": "CHEPES"}, {"id": "ARI0000SACV", "lat": -29.9, "lon": -63.6833, "alt": 341.0, "name": "VILLA MARIA DEL RIO"}, {"id": "ARI0000SADD", "lat": -34.5006, "lon": -58.6042, "alt": 5.0, "name": "DON TORCUATO"}, {"id": "ARI0000SADF", "lat": -34.4532, "lon": -58.5896, "alt": 3.0, "name": "SAN FERNANDO"}, {"id": "ARI0000SADM", "lat": -34.6763, "lon": -58.6428, "alt": 29.0, "name": "MORON"}, {"id": "ARI0000SADO", "lat": -34.5344, "lon": -58.6717, "alt": 24.1, "name": "CAMPO DE MAYO"}, {"id": "ARI0000SADP", "lat": -34.6099, "lon": -58.6126, "alt": 18.0, "name": "EL PALOMAR"}, {"id": "ARI0000SAEZ", "lat": -34.8222, "lon": -58.5358, "alt": 20.4, "name": "MINISTRO PISTARINI"}, {"id": "ARI0000SAMJ", "lat": -30.25, "lon": -68.75, "alt": 1165.0, "name": "JACHAL"}, {"id": "ARI0000SAMR", "lat": -34.5881, "lon": -68.4027, "alt": 752.8, "name": "SAN RAFAEL"}, {"id": "ARI0000SAMU", "lat": -32.6, "lon": -69.3333, "alt": 1844.0, "name": "USPALLATA"}, {"id": "ARI0000SANC", "lat": -28.5956, "lon": -65.7517, "alt": 463.9, "name": "CATAMARCA"}, {"id": "ARI0000SANI", "lat": -28.0378, "lon": -67.5803, "alt": 1209.4, "name": "TINOGASTA"}, {"id": "ARI0000SANO", "lat": -29.2239, "lon": -67.4389, "alt": 950.1, "name": "CHILECITO"}, {"id": "ARI0000SANT", "lat": -26.8409, "lon": -65.1049, "alt": 455.7, "name": "TENIENTE BENJAMIN MATIENZO"}, {"id": "ARI0000SANW", "lat": -29.8833, "lon": -61.95, "alt": 88.0, "name": "CERES"}, {"id": "ARI0000SAOC", "lat": -33.0851, "lon": -64.2613, "alt": 420.9, "name": "RIO CUARTO AREA DE MATERIAL"}, {"id": "ARI0000SAOL", "lat": -34.1354, "lon": -63.3623, "alt": 136.9, "name": "LABOULAYE"}, {"id": "ARI0000SAOS", "lat": -32.3847, "lon": -65.1865, "alt": 616.0, "name": "VALLE DEL CONLARA"}, {"id": "ARI0000SAOU", "lat": -33.2732, "lon": -66.3564, "alt": 709.9, "name": "SAN LUIS"}, {"id": "ARI0000SARI", "lat": -25.7373, "lon": -54.4734, "alt": 279.2, "name": "CATARATAS DEL IGUAZU"}, {"id": "ARI0000SARL", "lat": -29.6894, "lon": -57.1521, "alt": 70.1, "name": "PASO DE LOS LIBRES"}, {"id": "ARI0000SARM", "lat": -30.2719, "lon": -57.6402, "alt": 53.0, "name": "MONTE CASEROS"}, {"id": "ARI0000SARS", "lat": -26.7565, "lon": -60.4931, "alt": 93.6, "name": "PRESIDENCIA ROQUE SAENZ PENA"}, {"id": "ARI0000SASO", "lat": -23.1528, "lon": -64.3292, "alt": 356.0, "name": "ORAN"}, {"id": "ARI0000SASR", "lat": -24.1667, "lon": -62.9, "alt": 205.0, "name": "RIVADAVIA"}, {"id": "ARI0000SATK", "lat": -24.7214, "lon": -60.5488, "alt": 129.8, "name": "ALFEREZ ARMANDO RODRIGUEZ"}, {"id": "ARI0000SATR", "lat": -29.2103, "lon": -59.68, "alt": 49.1, "name": "RECONQUISTA"}, {"id": "ARI0000SATU", "lat": -29.7706, "lon": -57.9789, "alt": 70.1, "name": "CURUZU CUATIA"}, {"id": "ARI0000SAVA", "lat": -40.033, "lon": -70.05, "alt": 466.0, "name": "PIEDRA DEL AGUILA"}, {"id": "ARI0000SAVC", "lat": -45.7853, "lon": -67.4655, "alt": 57.9, "name": "COMODORO RIVADAVIA"}, {"id": "ARI0000SAVD", "lat": -42.0333, "lon": -71.1667, "alt": 720.0, "name": "EL MAITEN"}, {"id": "ARI0000SAVM", "lat": -45.5752, "lon": -69.077, "alt": 271.0, "name": "SARMIENTO LAGO MUSTER ARPT"}, {"id": "ARI0000SAVN", "lat": -40.7512, "lon": -65.0343, "alt": 25.9, "name": "ANTOINE DE ST EXUPERY"}, {"id": "ARI0000SAVR", "lat": -45.0167, "lon": -70.8167, "alt": 697.0, "name": "ALTO RIO SENGUERR"}, {"id": "ARI0000SAVT", "lat": -43.2105, "lon": -65.2703, "alt": 43.0, "name": "ALMIRANTE ZAR"}, {"id": "ARI0000SAVY", "lat": -42.7592, "lon": -65.1027, "alt": 129.8, "name": "EL TEHUELCHE"}, {"id": "ARI0000SAWA", "lat": -50.333, "lon": -72.3, "alt": 220.0, "name": "LAGO ARGENTINO ARPT"}, {"id": "ARI0000SAWC", "lat": -50.2803, "lon": -72.0531, "alt": 203.9, "name": "EL CALAFATE"}, {"id": "ARI0000SAWD", "lat": -47.7353, "lon": -65.9041, "alt": 81.1, "name": "PUERTO DESEADO"}, {"id": "ARI0000SAWM", "lat": -45.7, "lon": -70.25, "alt": 545.0, "name": "ALTO RIO MAYO"}, {"id": "ARI0000SAWR", "lat": -48.7833, "lon": -70.1667, "alt": 356.0, "name": "GOBERNADOR GREGORES"}, {"id": "ARI0000SAWT", "lat": -51.6, "lon": -72.2167, "alt": 273.0, "name": "EL TURBIO / AIRPORT"}, {"id": "ARI0000SAWU", "lat": -50.0165, "lon": -68.5792, "alt": 110.9, "name": "SANTA CRUZ"}, {"id": "ARI0000SAZA", "lat": -36.75, "lon": -59.8333, "alt": 132.0, "name": "AZUL AIRPORT"}, {"id": "ARI0000SAZB", "lat": -38.725, "lon": -62.1693, "alt": 75.0, "name": "COMANDANTE ESPORA"}, {"id": "ARI0000SAZD", "lat": -36.35, "lon": -57.7333, "alt": 9.0, "name": "DOLORES AIRPORT"}, {"id": "ARI0000SAZE", "lat": -37.6, "lon": -62.3833, "alt": 304.0, "name": "PIGUE AIRPORT"}, {"id": "ARI0000SAZI", "lat": -36.1871, "lon": -61.0761, "alt": 93.9, "name": "BOLIVAR"}, {"id": "ARI0000SAZM", "lat": -37.9342, "lon": -57.5733, "alt": 21.6, "name": "MAR DEL PLATA"}, {"id": "ARI0000SAZN", "lat": -38.949, "lon": -68.1557, "alt": 272.8, "name": "PRESIDENTE PERON"}, {"id": "ARI0000SAZQ", "lat": -39.0167, "lon": -64.0833, "alt": 79.0, "name": "RIO COLORADO"}, {"id": "ARI0000SAZR", "lat": -36.5883, "lon": -64.2757, "alt": 192.0, "name": "SANTA ROSA"}, {"id": "ARI0000SAZS", "lat": -41.1512, "lon": -71.1575, "alt": 846.1, "name": "SAN CARLOS DE BARILOCHE"}, {"id": "ARI0000SAZU", "lat": -38.133, "lon": -65.917, "alt": 231.0, "name": "PUELCHES"}, {"id": "ARI0000SAZV", "lat": -37.2354, "lon": -57.0292, "alt": 9.8, "name": "VILLA GESELL"}, {"id": "ARI0000SAZY", "lat": -40.0754, "lon": -71.1373, "alt": 783.0, "name": "AVIADOR C CAMPOS"}, {"id": "ARM00086228", "lat": -25.583, "lon": -54.55, "alt": 125.0, "name": "PONTE DA FRONTEIRA"}, {"id": "ARM00087021", "lat": -23.25, "lon": -64.3, "alt": 307.0, "name": "TABACALO"}, {"id": "ARM00087146", "lat": -27.567, "lon": -60.733, "alt": 75.0, "name": "VILLA ANGELA"}, {"id": "ARM00087148", "lat": -26.7333, "lon": -60.4833, "alt": 91.0, "name": "PRESIDENCIA ROQUE SAENZ PENA A"}, {"id": "ARM00087157", "lat": -27.45, "lon": -58.967, "alt": 52.0, "name": "RESISTENCIA EAST"}, {"id": "ARM00087171", "lat": -27.75, "lon": -57.633, "alt": 74.0, "name": "GENERAL PAZ"}, {"id": "ARM00087173", "lat": -27.5833, "lon": -56.6667, "alt": 72.0, "name": "ITUZAINGO"}, {"id": "ARM00087187", "lat": -27.4833, "lon": -55.1333, "alt": 303.0, "name": "OBERA"}, {"id": "ARM00087196", "lat": -27.583, "lon": -66.317, "alt": 1068.0, "name": "ANDALGALA"}, {"id": "ARM00087200", "lat": -28.633, "lon": -65.117, "alt": 330.0, "name": "FRIAS"}, {"id": "ARM00087213", "lat": -29.2333, "lon": -67.4333, "alt": 945.0, "name": "CHILECITO AERO"}, {"id": "ARM00087273", "lat": -29.1, "lon": -59.217, "alt": 38.0, "name": "GOYA AIRPORT"}, {"id": "ARM00087281", "lat": -29.217, "lon": -58.083, "alt": 107.0, "name": "VILLA MERCEDES/AAFB"}, {"id": "ARM00087312", "lat": -31.583, "lon": -68.533, "alt": 630.0, "name": "SAN JUAN SOUTH"}, {"id": "ARM00087320", "lat": -30.3667, "lon": -66.2833, "alt": 467.0, "name": "CHAMICAL AERO"}, {"id": "ARM00087345", "lat": -31.4, "lon": -64.1833, "alt": 426.0, "name": "CORDOBA OBSERVATORIO"}, {"id": "ARM00087387", "lat": -30.083, "lon": -58.767, "alt": 68.0, "name": "SAUCE"}, {"id": "ARM00087444", "lat": -32.3833, "lon": -65.1833, "alt": 615.0, "name": "SANTA ROSA DE CONLARA"}, {"id": "ARM00087468", "lat": -33.6667, "lon": -61.9667, "alt": 112.0, "name": "VENADO TUERTO AERO"}, {"id": "ARM00087470", "lat": -32.5, "lon": -61.6667, "alt": 96.0, "name": "EL TREBOL"}, {"id": "ARM00087540", "lat": -35.969, "lon": -62.7261, "alt": 95.0, "name": "TRENQUE LAUQUEN (ARGENTINA)"}, {"id": "ARM00087550", "lat": -35.45, "lon": -60.8833, "alt": 76.0, "name": "NUEVE DE JULIO"}, {"id": "ARM00087569", "lat": -34.55, "lon": -58.7333, "alt": 26.0, "name": "SAN MIGUEL"}, {"id": "ARM00087580", "lat": -34.183, "lon": -58.267, "alt": 36.0, "name": "ISLA MARTIN GARCIA"}, {"id": "ARM00087596", "lat": -35.3667, "lon": -57.2833, "alt": 16.0, "name": "PUNTA INDIO B.A."}, {"id": "ARM00087598", "lat": -35.167, "lon": -56.25, "alt": 11.0, "name": "FARO PONTON RECALAD"}, {"id": "ARM00087616", "lat": -36.217, "lon": -65.433, "alt": 312.0, "name": "VICTORICA"}, {"id": "ARM00087637", "lat": -37.4333, "lon": -61.8833, "alt": 233.0, "name": "CORONEL SUAREZ AERO"}, {"id": "ARM00087641", "lat": -36.8333, "lon": -59.8833, "alt": 146.0, "name": "AZUL AERO"}, {"id": "ARM00087643", "lat": -36.8833, "lon": -60.2167, "alt": 165.0, "name": "OLAVARRIA AERO"}, {"id": "ARM00087649", "lat": -37.7167, "lon": -59.7833, "alt": 207.0, "name": "BENITO JUAREZ"}, {"id": "ARM00087658", "lat": -36.55, "lon": -56.6833, "alt": 3.0, "name": "SANTA TERESITA AERO"}, {"id": "ARM00087759", "lat": -38.9, "lon": -70.05, "alt": 1015.0, "name": "ZAPALA"}, {"id": "ARM00087763", "lat": -41.25, "lon": -71.617, "alt": 1955.0, "name": "CATEDRAL 2000"}, {"id": "ARM00087774", "lat": -41.25, "lon": -68.7333, "alt": 888.0, "name": "MAQUINCHAO"}, {"id": "ARM00087926", "lat": -51.633, "lon": -69.217, "alt": 20.0, "name": "RIO GALLEGOS/ARG-NA"}, {"id": "ARM00087928", "lat": -52.333, "lon": -68.35, "alt": 24.0, "name": "FARO CABO VIRGENES"}, {"id": "ARM00087936", "lat": -54.7, "lon": -67.25, "alt": 105.0, "name": "TOLHUIN"}, {"id": "ARM00088968", "lat": -60.7333, "lon": -44.7333, "alt": 8.0, "name": "BASE ORCADAS"}, {"id": "ARU00060199", "lat": -34.58, "lon": -58.48, "alt": 9999.0, "name": "TO BE DETERMINED"}, {"id": "ARU087022-1", "lat": -22.65, "lon": -63.82, "alt": 450.0, "name": "TARTAGALAERO"}, {"id": "ARU087046-1", "lat": -24.38, "lon": -65.08, "alt": 905.0, "name": "JUJUYAERO"}, {"id": "ARU087371-1", "lat": -31.7, "lon": -60.82, "alt": 18.0, "name": "SAUCEVIEJOAERO"}, {"id": "ARU087374-1", "lat": -31.78, "lon": -60.48, "alt": 78.0, "name": "PARANAAERO"}, {"id": "ARU60-00136", "lat": -32.95, "lon": -60.33, "alt": 36.0, "name": "ROSARIO DE SANTA FE ARGENTINA"}, {"id": "ASA00749455", "lat": -21.417, "lon": 145.233, "alt": 396.0, "name": "LAKE BUCHANAN WEST"}, {"id": "ASA00749459", "lat": -27.25, "lon": 151.417, "alt": 413.0, "name": "DALBY SOUTHEAST"}, {"id": "ASA00749467", "lat": -33.8, "lon": 151.0, "alt": 19.0, "name": "NORTH PARRAMATTA"}, {"id": "ASA00941051", "lat": -14.05, "lon": 121.8, "alt": 8.0, "name": "SCOTT REEF AWS AUT"}, {"id": "ASA00941450", "lat": -14.917, "lon": 134.0, "alt": 70.0, "name": "ROPER VALLEY"}, {"id": "ASA00942152", "lat": -15.367, "lon": 126.3, "alt": 386.0, "name": "KING EDWARD RIVER"}, {"id": "ASA00942180", "lat": -17.85, "lon": 129.633, "alt": 403.0, "name": "INVERWAY"}, {"id": "ASA00943211", "lat": -24.05, "lon": 132.75, "alt": 520.0, "name": "PALM VALLEY"}, {"id": "ASA00943265", "lat": -23.8, "lon": 133.917, "alt": 541.0, "name": "ALICE SPRINGS ARPT"}, {"id": "ASA00944051", "lat": -28.3, "lon": 113.583, "alt": 11.0, "name": "ABROLHOS ISL (AUT)"}, {"id": "ASA00944291", "lat": -28.117, "lon": 117.833, "alt": 409.0, "name": "MT MAGNET EARO"}, {"id": "ASA00944310", "lat": -25.45, "lon": 117.117, "alt": 428.0, "name": "ERRABIDDY"}, {"id": "ASA00944470", "lat": -29.667, "lon": 119.267, "alt": 434.0, "name": "DIEMALS"}, {"id": "ASA00944580", "lat": -29.0, "lon": 134.75, "alt": 215.0, "name": "COOBER PEDY (PVT)"}, {"id": "ASA00946781", "lat": -34.733, "lon": 138.933, "alt": 515.0, "name": "WILLIAMSTOWN"}, {"id": "ASA00947631", "lat": -33.717, "lon": 150.667, "alt": 25.0, "name": "PENRITH"}, {"id": "ASA00948450", "lat": -38.383, "lon": 143.6, "alt": 248.0, "name": "ELLIMINYT"}, {"id": "ASA00948581", "lat": -38.133, "lon": 144.35, "alt": 8.0, "name": "POINT HENRY"}, {"id": "ASA00948665", "lat": -37.667, "lon": 144.85, "alt": 141.0, "name": "MELBOURNE INTL ARPT"}, {"id": "ASA00949040", "lat": -36.75, "lon": 147.167, "alt": 366.0, "name": "MOUNT BEAUTY"}, {"id": "ASA00949761", "lat": -42.117, "lon": 146.167, "alt": 750.0, "name": "LAKE SAINT CLAIRE"}, {"id": "ASA00953150", "lat": -24.4, "lon": 116.3, "alt": 300.0, "name": "MOUNT PHILLIP"}, {"id": "ASA00956720", "lat": -34.95, "lon": 138.533, "alt": 6.0, "name": "ADELAIDE AIRPORT OL"}, {"id": "ASA00958170", "lat": -37.483, "lon": 140.817, "alt": 65.0, "name": "PENOLA"}, {"id": "ASA00958420", "lat": -36.383, "lon": 143.0, "alt": 118.0, "name": "DONALD"}, {"id": "ASA00958540", "lat": -38.25, "lon": 145.933, "alt": 167.0, "name": "ELLINBANK DAIRY"}, {"id": "ASA00959060", "lat": -35.317, "lon": 148.067, "alt": 333.0, "name": "ADELONG"}, {"id": "ASA00959800", "lat": -40.733, "lon": 148.117, "alt": 9.0, "name": "SWAN ISLAND LIGHTHO"}, {"id": "ASI0000ABWP", "lat": -12.683, "lon": 141.933, "alt": 19.0, "name": "WEIPA ARPT(PRIVATE)"}, {"id": "ASI0000YABA", "lat": -34.9433, "lon": 117.8089, "alt": 71.0, "name": "ALBANY"}, {"id": "ASI0000YAMB", "lat": -27.6406, "lon": 152.7119, "alt": 27.7, "name": "AMBERLEY"}, {"id": "ASI0000YARG", "lat": -16.6369, "lon": 128.4514, "alt": 159.1, "name": "ARGYLE"}, {"id": "ASI0000YAYE", "lat": -25.1861, "lon": 130.9756, "alt": 495.6, "name": "AYERS ROCK CONNELLAN"}, {"id": "ASI0000YBAF", "lat": -27.5703, "lon": 153.0081, "alt": 19.2, "name": "BRISBANE ARCHERFIELD"}, {"id": "ASI0000YBAS", "lat": -23.8067, "lon": 133.9022, "alt": 545.3, "name": "ALICE SPRINGS"}, {"id": "ASI0000YBCV", "lat": -26.4133, "lon": 146.2625, "alt": 305.7, "name": "CHARLEVILLE"}, {"id": "ASI0000YBDV", "lat": -25.8975, "lon": 139.3475, "alt": 47.8, "name": "BIRDSVILLE"}, {"id": "ASI0000YBHI", "lat": -32.0014, "lon": 141.4717, "alt": 292.0, "name": "BROKEN HILL"}, {"id": "ASI0000YBHM", "lat": -20.3581, "lon": 148.9517, "alt": 4.6, "name": "HAMILTON ISLAND"}, {"id": "ASI0000YBLN", "lat": -33.6925, "lon": 115.3953, "alt": 16.8, "name": "BUSSELTON"}, {"id": "ASI0000YBMA", "lat": -20.6639, "lon": 139.4886, "alt": 341.7, "name": "MOUNT ISA"}, {"id": "ASI0000YBNA", "lat": -28.8339, "lon": 153.5625, "alt": 2.1, "name": "BALLINA BYRON GATEWAY"}, {"id": "ASI0000YBOK", "lat": -27.4114, "lon": 151.7353, "alt": 406.9, "name": "OAKEY"}, {"id": "ASI0000YBTR", "lat": -23.6031, "lon": 148.8069, "alt": 200.2, "name": "BLACKWATER"}, {"id": "ASI0000YBUD", "lat": -24.9039, "lon": 152.3186, "alt": 32.6, "name": "BUNDABERG"}, {"id": "ASI0000YBWW", "lat": -27.5583, "lon": 151.7933, "alt": 459.9, "name": "TOOWOOMBA WELLCAMP ARPT"}, {"id": "ASI0000YBWX", "lat": -20.8644, "lon": 115.4061, "alt": 7.9, "name": "BARROW ISLAND"}, {"id": "ASI0000YCAR", "lat": -24.8806, "lon": 113.6722, "alt": 4.0, "name": "CARNARVON"}, {"id": "ASI0000YCAS", "lat": -28.8828, "lon": 153.0669, "alt": 26.2, "name": "CASINO"}, {"id": "ASI0000YCBA", "lat": -31.5383, "lon": 145.7939, "alt": 220.7, "name": "COBAR"}, {"id": "ASI0000YCBB", "lat": -31.3325, "lon": 149.2672, "alt": 645.3, "name": "COONABARABRAN"}, {"id": "ASI0000YCBP", "lat": -29.04, "lon": 134.7208, "alt": 225.6, "name": "COOBER PEDY"}, {"id": "ASI0000YCCY", "lat": -20.6686, "lon": 140.5044, "alt": 187.8, "name": "CLONCURRY"}, {"id": "ASI0000YCDU", "lat": -32.1306, "lon": 133.7097, "alt": 23.5, "name": "CEDUNA"}, {"id": "ASI0000YCFS", "lat": -30.3206, "lon": 153.1164, "alt": 5.0, "name": "COFFS HARBOUR"}, {"id": "ASI0000YCIN", "lat": -17.5814, "lon": 123.8283, "alt": 91.4, "name": "CURTIN"}, {"id": "ASI0000YCMM", "lat": -34.25, "lon": 135.7167, "alt": 58.0, "name": "CUMMINS AERO"}, {"id": "ASI0000YCNM", "lat": -30.9833, "lon": 148.3755, "alt": 184.1, "name": "COONAMBLE"}, {"id": "ASI0000YCOM", "lat": -36.3006, "lon": 148.9739, "alt": 946.7, "name": "COOMA SNOWY MOUNTAINS"}, {"id": "ASI0000YDBY", "lat": -17.37, "lon": 123.6606, "alt": 7.3, "name": "DERBY"}, {"id": "ASI0000YEML", "lat": -23.5675, "lon": 148.1792, "alt": 190.2, "name": "EMERALD"}, {"id": "ASI0000YESP", "lat": -33.6844, "lon": 121.8228, "alt": 143.2, "name": "ESPERANCE"}, {"id": "ASI0000YGFN", "lat": -29.7594, "lon": 153.03, "alt": 33.5, "name": "GRAFTON"}, {"id": "ASI0000YGLA", "lat": -23.8697, "lon": 151.2228, "alt": 19.5, "name": "GLADSTONE"}, {"id": "ASI0000YGTH", "lat": -34.2508, "lon": 146.0672, "alt": 133.8, "name": "GRIFFITH"}, {"id": "ASI0000YHUG", "lat": -20.815, "lon": 144.2253, "alt": 317.9, "name": "HUGHENDEN"}, {"id": "ASI0000YIFL", "lat": -17.5594, "lon": 146.0117, "alt": 14.0, "name": "INNISFAIL"}, {"id": "ASI0000YJBY", "lat": -35.1472, "lon": 150.6972, "alt": 61.0, "name": "JERVIS BAY"}, {"id": "ASI0000YLHI", "lat": -31.5333, "lon": 159.0667, "alt": 5.0, "name": "LORD HOWE ISLAND"}, {"id": "ASI0000YLIS", "lat": -28.8303, "lon": 153.26, "alt": 10.7, "name": "LISMORE"}, {"id": "ASI0000YLRE", "lat": -23.4342, "lon": 144.2803, "alt": 191.1, "name": "LONGREACH"}, {"id": "ASI0000YMAV", "lat": -38.0394, "lon": 144.4694, "alt": 10.7, "name": "AVALON"}, {"id": "ASI0000YMDG", "lat": -32.5625, "lon": 149.6111, "alt": 470.9, "name": "MUDGEE"}, {"id": "ASI0000YMEK", "lat": -26.6117, "lon": 118.5478, "alt": 522.1, "name": "MEEKATHARRA"}, {"id": "ASI0000YMER", "lat": -36.9086, "lon": 149.9014, "alt": 2.1, "name": "MERIMBULA"}, {"id": "ASI0000YMES", "lat": -38.0989, "lon": 147.1494, "alt": 7.0, "name": "EAST SALE"}, {"id": "ASI0000YMLT", "lat": -41.5453, "lon": 147.2142, "alt": 171.3, "name": "LAUNCESTON"}, {"id": "ASI0000YMND", "lat": -32.7033, "lon": 151.4883, "alt": 22.9, "name": "MAITLAND"}, {"id": "ASI0000YMOR", "lat": -29.4989, "lon": 149.8447, "alt": 213.7, "name": "MOREE"}, {"id": "ASI0000YMTG", "lat": -37.7456, "lon": 140.7853, "alt": 64.6, "name": "MOUNT GAMBIER"}, {"id": "ASI0000YNBR", "lat": -30.3192, "lon": 149.8272, "alt": 240.2, "name": "NARRABRI"}, {"id": "ASI0000YNTN", "lat": -17.6836, "lon": 141.0703, "alt": 22.2, "name": "NORMANTON"}, {"id": "ASI0000YNWN", "lat": -23.4178, "lon": 119.8028, "alt": 525.5, "name": "NEWMAN"}, {"id": "ASI0000YOLD", "lat": -30.485, "lon": 136.8767, "alt": 104.5, "name": "OLYMPIC DAM"}, {"id": "ASI0000YPBO", "lat": -23.1711, "lon": 117.7453, "alt": 428.5, "name": "PARABURDOO"}, {"id": "ASI0000YPGV", "lat": -12.2694, "lon": 136.8183, "alt": 58.5, "name": "GOVE"}, {"id": "ASI0000YPKU", "lat": -15.7781, "lon": 128.7075, "alt": 44.2, "name": "KUNUNURRA"}, {"id": "ASI0000YPMP", "lat": -14.8967, "lon": 141.6095, "alt": 3.0, "name": "PORMPURAAW"}, {"id": "ASI0000YPMQ", "lat": -31.4358, "lon": 152.8633, "alt": 3.7, "name": "PORT MACQUARIE"}, {"id": "ASI0000YRMD", "lat": -20.7019, "lon": 143.1147, "alt": 206.0, "name": "RICHMOND"}, {"id": "ASI0000YSRI", "lat": -33.6006, "lon": 150.7808, "alt": 20.4, "name": "RICHMOND"}, {"id": "ASI0000YTEF", "lat": -21.715, "lon": 122.2286, "alt": 295.6, "name": "TELFER"}, {"id": "ASI0000YTIB", "lat": -29.4511, "lon": 142.0578, "alt": 178.0, "name": "TIBOOBURRA"}, {"id": "ASI0000YTNK", "lat": -19.6344, "lon": 134.1833, "alt": 376.7, "name": "TENNANT CREEK"}, {"id": "ASI0000YTRE", "lat": -31.8886, "lon": 152.5139, "alt": 11.6, "name": "TAREE"}, {"id": "ASI0000YWDH", "lat": -25.4131, "lon": 142.6672, "alt": 137.8, "name": "WINDORAH"}, {"id": "ASI0000YWGT", "lat": -36.4158, "lon": 146.3069, "alt": 153.6, "name": "WANGARATTA"}, {"id": "ASI0000YWKB", "lat": -36.3211, "lon": 142.4194, "alt": 121.0, "name": "WARRACKNABEAL"}, {"id": "ASI0000YWLU", "lat": -26.6292, "lon": 120.2206, "alt": 502.6, "name": "WILUNA"}, {"id": "ASM00074943", "lat": -13.3, "lon": 131.133, "alt": 131.0, "name": "AIDELAIDE RIVER SE"}, {"id": "ASM00074944", "lat": -19.767, "lon": 146.85, "alt": 122.0, "name": "REID EAST"}, {"id": "ASM00093995", "lat": -31.533, "lon": 159.083, "alt": 46.0, "name": "949950"}, {"id": "ASM00093996", "lat": -29.05, "lon": 167.933, "alt": 109.0, "name": "949960"}, {"id": "ASM00093998", "lat": -54.5, "lon": 158.95, "alt": 6.0, "name": "949980"}, {"id": "ASM00094103", "lat": -14.1167, "lon": 123.5333, "alt": 5.0, "name": "BROWSE ISLAND AWS"}, {"id": "ASM00094108", "lat": -11.1667, "lon": 132.4833, "alt": 15.5, "name": "CROKER ISLAND AIRPORT"}, {"id": "ASM00094111", "lat": -14.233, "lon": 129.45, "alt": 18.0, "name": "PORT KEATS AWS AUT"}, {"id": "ASM00094112", "lat": -13.09, "lon": 131.85, "alt": 55.0, "name": "MOUNT BUNDEY SOUTH (DEFENCE)"}, {"id": "ASM00094123", "lat": -12.233, "lon": 131.033, "alt": 15.0, "name": "GUNPOINT"}, {"id": "ASM00094151", "lat": -13.65, "lon": 136.9333, "alt": 18.0, "name": "NORTH EAST ISLAND"}, {"id": "ASM00094161", "lat": -12.7934, "lon": 130.8542, "alt": 50.0, "name": "KANGAROO FLATS (DEFENCE)"}, {"id": "ASM00094162", "lat": -12.9141, "lon": 131.8663, "alt": 83.0, "name": "MOUNT BUNDEY NORTH (DEFENCE)"}, {"id": "ASM00094181", "lat": -10.59, "lon": 142.22, "alt": 3.0, "name": "TORRES STRAIT NTC AWS"}, {"id": "ASM00094207", "lat": -17.5333, "lon": 118.95, "alt": 8.0, "name": "ROWLEY SHOALS"}, {"id": "ASM00094221", "lat": -15.44, "lon": 130.57, "alt": 60.0, "name": "BRADSHAW-ANGALLARI VALLEY (DEF"}, {"id": "ASM00094271", "lat": -19.3048, "lon": 146.2438, "alt": 385.5, "name": "TOWNSVILLE- AIR WEAPONS RANGE"}, {"id": "ASM00094272", "lat": -19.4082, "lon": 146.762, "alt": 176.4, "name": "MOUNT STUART (DEFENCE)"}, {"id": "ASM00094273", "lat": -19.78, "lon": 146.5, "alt": 325.8, "name": "TOWNSVILLE-FANNING RIVER (DEFE"}, {"id": "ASM00094288", "lat": -16.95, "lon": 145.75, "alt": 401.0, "name": "CAIRNS RACECOURSE"}, {"id": "ASM00094296", "lat": -17.1167, "lon": 152.0, "alt": 9.0, "name": "LIHOU REEF"}, {"id": "ASM00094297", "lat": -19.28, "lon": 147.06, "alt": 0.0, "name": "CAPE FERGUSON NTC AWS"}, {"id": "ASM00094298", "lat": -19.0833, "lon": 152.3833, "alt": 8.0, "name": "MARION REEF"}, {"id": "ASM00094310", "lat": -19.5833, "lon": 119.1, "alt": 10.0, "name": "BEDOUT ISLAND"}, {"id": "ASM00094314", "lat": -21.6333, "lon": 116.3333, "alt": 200.0, "name": "PANNAWONICA"}, {"id": "ASM00094315", "lat": -20.1333, "lon": 127.9833, "alt": 421.1, "name": "BALGO HILLS ASA"}, {"id": "ASM00094344", "lat": -21.6, "lon": 138.3667, "alt": 75.0, "name": "URANDANGI AERODROME"}, {"id": "ASM00094347", "lat": -20.9358, "lon": 139.2964, "alt": 396.0, "name": "CARTERS BORE"}, {"id": "ASM00094348", "lat": -20.1167, "lon": 139.7333, "alt": 237.0, "name": "LAKE JULIUS AWS"}, {"id": "ASM00094349", "lat": -20.5833, "lon": 139.3333, "alt": 392.0, "name": "NEW MAY DOWNS"}, {"id": "ASM00094394", "lat": -23.25, "lon": 155.5333, "alt": 7.0, "name": "CATO ISLAND"}, {"id": "ASM00094407", "lat": -29.7614, "lon": 143.1135, "alt": 121.0, "name": "BORRONA DOWNS AWS"}, {"id": "ASM00094416", "lat": -29.217, "lon": 116.0, "alt": 274.0, "name": "MORAWA"}, {"id": "ASM00094418", "lat": -28.0437, "lon": 153.1871, "alt": 108.2, "name": "CANUNGRA (DEFENCE)"}, {"id": "ASM00094419", "lat": -27.6932, "lon": 152.9935, "alt": 41.5, "name": "GREENBANK (DEFENCE)"}, {"id": "ASM00094420", "lat": -25.9351, "lon": 152.9647, "alt": 31.3, "name": "TIN CAN BAY (DEFENCE)"}, {"id": "ASM00094475", "lat": -26.067, "lon": 135.25, "alt": 150.0, "name": "WITJIRA NATIONAL"}, {"id": "ASM00094548", "lat": -26.7167, "lon": 152.8667, "alt": 230.0, "name": "BAROON POCKET DAM"}, {"id": "ASM00094551", "lat": -27.583, "lon": 151.933, "alt": 676.0, "name": "TOOWOOMBA"}, {"id": "ASM00094561", "lat": -27.5433, "lon": 153.2394, "alt": 50.5, "name": "REDLAND (ALEXANDRA HILLS)"}, {"id": "ASM00094565", "lat": -25.3, "lon": 152.817, "alt": 17.0, "name": "HERVEY BAY/PIALBA"}, {"id": "ASM00094606", "lat": -32.217, "lon": 115.683, "alt": 10.0, "name": "GARDEN ISLAND"}, {"id": "ASM00094624", "lat": -32.683, "lon": 116.667, "alt": 250.0, "name": "WANDERING COMPARISO"}, {"id": "ASM00094626", "lat": -31.65, "lon": 117.25, "alt": 236.0, "name": "CUNDERDIN"}, {"id": "ASM00094660", "lat": -32.4333, "lon": 136.0667, "alt": 213.0, "name": "MOUNT IVE"}, {"id": "ASM00094758", "lat": -31.7678, "lon": 150.8418, "alt": 467.0, "name": "MURRURUNDI (HAYDON STREET)"}, {"id": "ASM00094782", "lat": -33.4333, "lon": 151.3667, "alt": 7.0, "name": "GOSFORD AWS"}, {"id": "ASM00094793", "lat": -30.24, "lon": 147.53, "alt": 130.0, "name": "BREWON AWS"}, {"id": "ASM00094795", "lat": -31.81, "lon": 116.02, "alt": 16.0, "name": "MILLENDON (SWAN VALLEY)"}, {"id": "ASM00094796", "lat": -30.07, "lon": 141.01, "alt": 94.0, "name": "SMITHVILLE AWS"}, {"id": "ASM00094797", "lat": -33.34, "lon": 143.4, "alt": 78.0, "name": "MULURULU AWS"}, {"id": "ASM00094798", "lat": -31.73, "lon": 144.93, "alt": 179.0, "name": "NOONA AWS"}, {"id": "ASM00094803", "lat": -35.783, "lon": 137.033, "alt": 23.0, "name": "ALLENDALE"}, {"id": "ASM00094815", "lat": -35.55, "lon": 138.617, "alt": 5.0, "name": "VICTOR HARBOUR P.O."}, {"id": "ASM00094824", "lat": -38.1333, "lon": 141.6333, "alt": 27.0, "name": "HEYWOOD FORESTRY"}, {"id": "ASM00094858", "lat": -36.94, "lon": 145.05, "alt": 193.0, "name": "PUCKAPUNYAL LYON HILL (DEFENCE"}, {"id": "ASM00094867", "lat": -37.683, "lon": 144.95, "alt": 110.0, "name": "TRAINING ANNEX"}, {"id": "ASM00094924", "lat": -35.233, "lon": 149.0, "alt": 605.0, "name": "HOLT (PINE RIDGE)"}, {"id": "ASM00094931", "lat": -36.667, "lon": 149.817, "alt": 11.0, "name": "BEGA"}, {"id": "ASM00094944", "lat": -35.13, "lon": 147.25, "alt": 187.0, "name": "KAPOOKA (DEFENCE)"}, {"id": "ASM00094951", "lat": -42.9, "lon": 147.7833, "alt": 12.7, "name": "DUNALLEY (STROUD POINT)"}, {"id": "ASM00094973", "lat": -42.7833, "lon": 146.9, "alt": 532.0, "name": "MOOGARA (UXBRIDGE BACK ROAD"}, {"id": "ASM00094978", "lat": -43.167, "lon": 147.833, "alt": 193.0, "name": "PORT ARTHUR /PALMER"}, {"id": "ASM00094988", "lat": -43.0667, "lon": 147.35, "alt": 6.5, "name": "DENNES POINT"}, {"id": "ASM00094997", "lat": -53.1, "lon": 73.7167, "alt": 12.0, "name": "HEARD ISLAND (THE SPIT)"}, {"id": "ASM00094998", "lat": -54.4994, "lon": 158.9369, "alt": 8.3, "name": "MACQUARIE ISLAND"}, {"id": "ASM00095122", "lat": -12.47, "lon": 130.85, "alt": 0.0, "name": "DARWIN NTC AWS"}, {"id": "ASM00095208", "lat": -16.77, "lon": 123.98, "alt": 41.3, "name": "YAMPI SOUND (DEFENCE)"}, {"id": "ASM00095287", "lat": -16.4333, "lon": 145.9833, "alt": 2.0, "name": "NORMAN REEF"}, {"id": "ASM00095290", "lat": -16.85, "lon": 146.2333, "alt": 2.0, "name": "MOORE REEF"}, {"id": "ASM00095298", "lat": -23.16, "lon": 150.79, "alt": 0.0, "name": "ROSSLYN BAY NTC AWS"}, {"id": "ASM00095299", "lat": -16.29, "lon": 149.96, "alt": 8.0, "name": "WILLIS ISLAND COIMP"}, {"id": "ASM00095308", "lat": -20.617, "lon": 116.75, "alt": 16.0, "name": "KARRATHA (KING BAY)"}, {"id": "ASM00095312", "lat": -21.983, "lon": 119.0, "alt": 387.0, "name": "REDMONT"}, {"id": "ASM00095314", "lat": -23.35, "lon": 119.717, "alt": 545.0, "name": "NEWMAN"}, {"id": "ASM00095318", "lat": -24.3, "lon": 116.917, "alt": 337.0, "name": "MOUNT AUGUSTUS"}, {"id": "ASM00095400", "lat": -25.117, "lon": 119.15, "alt": 522.0, "name": "THREE RIVERS"}, {"id": "ASM00095574", "lat": -26.383, "lon": 153.033, "alt": 8.0, "name": "TEWANTIN"}, {"id": "ASM00095605", "lat": -31.83, "lon": 115.74, "alt": 0.0, "name": "HILLARYS BOAT HARBOR AWS"}, {"id": "ASM00095609", "lat": -30.84, "lon": 115.23, "alt": 3.4, "name": "LANCELIN (DEFENCE)"}, {"id": "ASM00095633", "lat": -30.383, "lon": 120.15, "alt": 501.0, "name": "SOUTHERN CROSS MT"}, {"id": "ASM00095649", "lat": -34.67, "lon": 135.34, "alt": 35.0, "name": "POINT AVOID"}, {"id": "ASM00095679", "lat": -35.3333, "lon": 138.5, "alt": 386.0, "name": "MOUNT TERRIBLE RADAR"}, {"id": "ASM00095681", "lat": -30.1, "lon": 145.33, "alt": 109.0, "name": "DELTA AWS"}, {"id": "ASM00095682", "lat": -32.83, "lon": 145.88, "alt": 209.0, "name": "MOUNT HOPE"}, {"id": "ASM00095683", "lat": -32.68, "lon": 137.37, "alt": 171.0, "name": "CULTANA (DEFENCE)"}, {"id": "ASM00095684", "lat": -34.08, "lon": 150.9, "alt": 165.0, "name": "HOLSWORTHY DEFENCE AWS"}, {"id": "ASM00095686", "lat": -33.43, "lon": 150.13, "alt": 955.0, "name": "MARRANGAROO (DEFENCE)"}, {"id": "ASM00095761", "lat": -33.9833, "lon": 150.95, "alt": 68.8, "name": "HOLSWORTHY AERODROME AWS"}, {"id": "ASM00095768", "lat": -33.8167, "lon": 151.3, "alt": 90.0, "name": "NORTH HEAD"}, {"id": "ASM00095876", "lat": -37.65, "lon": 145.433, "alt": 100.0, "name": "TARRAWARRA"}, {"id": "ASM00095955", "lat": -41.883, "lon": 146.667, "alt": 1060.0, "name": "LIAWENEE"}, {"id": "ASM00095965", "lat": -39.467, "lon": 147.3, "alt": 85.0, "name": "DEAL ISLAND"}, {"id": "ASM00095968", "lat": -41.6833, "lon": 147.2833, "alt": 173.0, "name": "POWRANNA (TASMANIA FEEDLOT)"}, {"id": "ASM00095978", "lat": -40.2, "lon": 148.233, "alt": 12.0, "name": "LADY BARRON AERO"}, {"id": "ASM00095982", "lat": -41.617, "lon": 147.733, "alt": 781.0, "name": "STORYS CREEK AWS"}, {"id": "ASM00095987", "lat": -42.55, "lon": 147.93, "alt": 0.0, "name": "SPRING BAY NTC AWS"}, {"id": "ASM00095995", "lat": -31.5333, "lon": 159.0667, "alt": 4.0, "name": "LORD HOWE ISLAND WINDY POINT"}, {"id": "ASM00095997", "lat": -53.0167, "lon": 73.4, "alt": 4.0, "name": "HEARD ISLAND (ATLAS COVE)"}, {"id": "ASN00001005", "lat": -15.4644, "lon": 128.1, "alt": 20.0, "name": "WYNDHAM PORT"}, {"id": "ASN00001007", "lat": -13.7542, "lon": 126.1485, "alt": 6.0, "name": "TROUGHTON ISLAND"}, {"id": "ASN00001009", "lat": -15.4875, "lon": 124.5222, "alt": 12.0, "name": "KURI BAY"}, {"id": "ASN00001012", "lat": -14.7925, "lon": 125.8258, "alt": 315.0, "name": "MITCHELL PLATEAU"}, {"id": "ASN00001021", "lat": -14.2961, "lon": 126.6431, "alt": 23.0, "name": "KALUMBURU MISSION"}, {"id": "ASN00002011", "lat": -18.2519, "lon": 127.7817, "alt": 360.0, "name": "OLD HALLS CREEK"}, {"id": "ASN00002012", "lat": -18.2291, "lon": 127.6636, "alt": 422.0, "name": "HALLS CREEK METEOROLOGICAL OFF"}, {"id": "ASN00002014", "lat": -15.6545, "lon": 128.7091, "alt": 31.0, "name": "KIMBERLEY RES.STATION"}, {"id": "ASN00002032", "lat": -17.0154, "lon": 128.2174, "alt": 203.0, "name": "WARMUN"}, {"id": "ASN00003003", "lat": -17.9475, "lon": 122.2352, "alt": 7.4, "name": "BROOME AIRPORT"}, {"id": "ASN00003004", "lat": -16.3961, "lon": 122.9278, "alt": 25.0, "name": "CAPE LEVEQUE"}, {"id": "ASN00003006", "lat": -18.1919, "lon": 125.5644, "alt": 114.0, "name": "FITZROY CROSSING COMP."}, {"id": "ASN00003007", "lat": -17.3044, "lon": 123.6292, "alt": 8.0, "name": "DERBY POST OFFICE"}, {"id": "ASN00003025", "lat": -16.0992, "lon": 123.6161, "alt": 91.0, "name": "COCKATOO ISLAND"}, {"id": "ASN00003030", "lat": -18.6844, "lon": 121.7803, "alt": 11.0, "name": "BIDYADANGA"}, {"id": "ASN00003032", "lat": -17.3706, "lon": 123.6611, "alt": 6.2, "name": "DERBY AERO"}, {"id": "ASN00003040", "lat": -17.9903, "lon": 124.1922, "alt": 45.0, "name": "CAMBALLIN"}, {"id": "ASN00003042", "lat": -19.2833, "lon": 121.5, "alt": 3.0, "name": "TALGARNO"}, {"id": "ASN00003069", "lat": -16.1306, "lon": 123.7764, "alt": 152.0, "name": "KOOLAN ISLAND"}, {"id": "ASN00004019", "lat": -19.7419, "lon": 120.8433, "alt": 7.5, "name": "MANDORA"}, {"id": "ASN00004020", "lat": -21.1756, "lon": 119.7497, "alt": 182.3, "name": "MARBLE BAR COMPARISON"}, {"id": "ASN00004032", "lat": -20.3725, "lon": 118.6317, "alt": 6.4, "name": "PORT HEDLAND AIRPORT"}, {"id": "ASN00004035", "lat": -20.7767, "lon": 117.1456, "alt": 12.0, "name": "ROEBOURNE"}, {"id": "ASN00004084", "lat": -20.4958, "lon": 120.1672, "alt": 164.0, "name": "SHAY GAP"}, {"id": "ASN00005007", "lat": -22.2406, "lon": 114.0967, "alt": 5.0, "name": "LEARMONTH AIRPORT"}, {"id": "ASN00005008", "lat": -21.1906, "lon": 115.9797, "alt": 11.0, "name": "MARDIE"}, {"id": "ASN00005016", "lat": -21.6364, "lon": 115.1117, "alt": 4.0, "name": "ONSLOW"}, {"id": "ASN00005017", "lat": -21.6689, "lon": 115.1092, "alt": 10.5, "name": "ONSLOW AIRPORT"}, {"id": "ASN00005024", "lat": -21.8067, "lon": 114.1072, "alt": 12.0, "name": "VLAMINGH HEAD"}, {"id": "ASN00005026", "lat": -22.2425, "lon": 118.3358, "alt": 463.0, "name": "WITTENOOM"}, {"id": "ASN00005053", "lat": -20.6553, "lon": 116.6789, "alt": 50.0, "name": "EAST INTERCOURSE ISLAND"}, {"id": "ASN00005058", "lat": -20.8206, "lon": 115.3931, "alt": 62.0, "name": "BARROW ISLAND"}, {"id": "ASN00005061", "lat": -20.7278, "lon": 116.7483, "alt": 6.0, "name": "DAMPIER SALT"}, {"id": "ASN00005064", "lat": -22.7825, "lon": 119.6172, "alt": 433.0, "name": "SAND HILL"}, {"id": "ASN00005075", "lat": -21.8222, "lon": 114.1714, "alt": 7.0, "name": "NAVY ALPHA"}, {"id": "ASN00006011", "lat": -24.8878, "lon": 113.67, "alt": 4.0, "name": "CARNARVON AIRPORT"}, {"id": "ASN00006022", "lat": -25.0544, "lon": 115.21, "alt": 144.0, "name": "GASCOYNE JUNCTION"}, {"id": "ASN00006025", "lat": -26.3994, "lon": 114.1658, "alt": 15.0, "name": "HAMELIN POOL"}, {"id": "ASN00006072", "lat": -23.0314, "lon": 115.0414, "alt": 111.0, "name": "EMU CREEK STATION"}, {"id": "ASN00006080", "lat": -26.2564, "lon": 113.8064, "alt": 20.0, "name": "NANGA"}, {"id": "ASN00006087", "lat": -24.8167, "lon": 113.8333, "alt": 17.0, "name": "BRICKHOUSE WOOLSHED"}, {"id": "ASN00006094", "lat": -24.2167, "lon": 113.3833, "alt": 41.0, "name": "CAPE CUVIER"}, {"id": "ASN00007014", "lat": -27.2528, "lon": 117.6522, "alt": 500.0, "name": "COODARDY"}, {"id": "ASN00007017", "lat": -27.425, "lon": 117.8936, "alt": 453.0, "name": "CUE"}, {"id": "ASN00007045", "lat": -26.6136, "lon": 118.5372, "alt": 517.0, "name": "MEEKATHARRA AIRPORT"}, {"id": "ASN00007046", "lat": -26.5933, "lon": 118.4883, "alt": 511.0, "name": "MEEKATHARRA POST OFFICE"}, {"id": "ASN00007057", "lat": -28.0617, "lon": 117.8506, "alt": 426.0, "name": "MOUNT MAGNET"}, {"id": "ASN00007062", "lat": -23.7942, "lon": 120.2442, "alt": 571.0, "name": "MUNDIWINDI"}, {"id": "ASN00007064", "lat": -27.3636, "lon": 116.4261, "alt": 303.0, "name": "MURGOO"}, {"id": "ASN00007091", "lat": -28.3386, "lon": 116.6825, "alt": 318.0, "name": "YALGOO"}, {"id": "ASN00007178", "lat": -23.2028, "lon": 117.6692, "alt": 391.0, "name": "PARABURDOO"}, {"id": "ASN00008039", "lat": -30.2772, "lon": 116.6619, "alt": 335.0, "name": "DALWALLINU COMPARISON"}, {"id": "ASN00008050", "lat": -28.7769, "lon": 114.605, "alt": 3.0, "name": "GERALDTON TOWN"}, {"id": "ASN00008051", "lat": -28.7953, "lon": 114.6975, "alt": 33.0, "name": "GERALDTON AIRPORT COMPARISON"}, {"id": "ASN00008091", "lat": -30.6417, "lon": 116.0072, "alt": 203.0, "name": "MOORA"}, {"id": "ASN00008095", "lat": -28.5367, "lon": 115.5142, "alt": 268.0, "name": "MULLEWA"}, {"id": "ASN00008138", "lat": -30.8408, "lon": 116.7267, "alt": 305.0, "name": "WONGAN HILLS RES.STATION"}, {"id": "ASN00008251", "lat": -27.7119, "lon": 114.165, "alt": 6.0, "name": "KALBARRI"}, {"id": "ASN00008267", "lat": -28.3517, "lon": 114.5778, "alt": 60.0, "name": "NOKANENA"}, {"id": "ASN00009021", "lat": -31.9275, "lon": 115.9764, "alt": 15.4, "name": "PERTH AIRPORT"}, {"id": "ASN00009034", "lat": -31.9556, "lon": 115.8697, "alt": 19.0, "name": "PERTH REGIONAL OFFICE"}, {"id": "ASN00009035", "lat": -31.9861, "lon": 115.8192, "alt": 6.1, "name": "NEDLANDS UWA"}, {"id": "ASN00009038", "lat": -32.0089, "lon": 115.5022, "alt": 46.0, "name": "ROTTNEST ISLAND LIGHTHOUSE"}, {"id": "ASN00009053", "lat": -31.6669, "lon": 116.0189, "alt": 40.0, "name": "PEARCE RAAF"}, {"id": "ASN00009067", "lat": -31.7564, "lon": 116.0222, "alt": 15.0, "name": "UPPER SWAN RESEARCH STATION"}, {"id": "ASN00009111", "lat": -32.4389, "lon": 116.0789, "alt": 286.0, "name": "KARNET"}, {"id": "ASN00009114", "lat": -31.016, "lon": 115.3322, "alt": 1.5, "name": "LANCELIN"}, {"id": "ASN00009131", "lat": -30.3081, "lon": 115.0311, "alt": 1.6, "name": "JURIEN BAY"}, {"id": "ASN00009161", "lat": -32.0022, "lon": 115.8861, "alt": 18.0, "name": "BENTLEY (CURTIN)"}, {"id": "ASN00009500", "lat": -35.0289, "lon": 117.8808, "alt": 3.0, "name": "ALBANY"}, {"id": "ASN00009510", "lat": -33.9575, "lon": 116.1375, "alt": 149.9, "name": "BRIDGETOWN COMPARISON"}, {"id": "ASN00009514", "lat": -33.3267, "lon": 115.63, "alt": 4.0, "name": "BUNBURY POST OFFICE"}, {"id": "ASN00009515", "lat": -33.6611, "lon": 115.3456, "alt": 4.0, "name": "BUSSELTON SHIRE"}, {"id": "ASN00009518", "lat": -34.3728, "lon": 115.1358, "alt": 13.0, "name": "CAPE LEEUWIN"}, {"id": "ASN00009519", "lat": -33.5372, "lon": 115.0189, "alt": 109.0, "name": "CAPE NATURALISTE"}, {"id": "ASN00009534", "lat": -33.5719, "lon": 115.8247, "alt": 63.0, "name": "DONNYBROOK"}, {"id": "ASN00009538", "lat": -32.7103, "lon": 116.0594, "alt": 267.0, "name": "DWELLINGUP"}, {"id": "ASN00009541", "lat": -33.85, "lon": 121.8833, "alt": 4.0, "name": "ESPERANCE POST OFFICE"}, {"id": "ASN00009573", "lat": -34.2508, "lon": 116.145, "alt": 286.7, "name": "MANJIMUP"}, {"id": "ASN00009581", "lat": -34.625, "lon": 117.6361, "alt": 300.0, "name": "MOUNT BARKER"}, {"id": "ASN00009592", "lat": -34.4478, "lon": 116.0433, "alt": 174.0, "name": "PEMBERTON"}, {"id": "ASN00009628", "lat": -33.36, "lon": 116.1467, "alt": 204.0, "name": "COLLIE"}, {"id": "ASN00009631", "lat": -33.6031, "lon": 121.7828, "alt": 158.0, "name": "ESPERANCE DOWNS RESEARCH STN"}, {"id": "ASN00009642", "lat": -33.1328, "lon": 115.8794, "alt": 30.0, "name": "WOKALUP"}, {"id": "ASN00009741", "lat": -34.9414, "lon": 117.8022, "alt": 68.0, "name": "ALBANY AIRPORT COMPARISON"}, {"id": "ASN00009784", "lat": -34.9319, "lon": 117.1606, "alt": 80.0, "name": "KIMBERLEY"}, {"id": "ASN00009787", "lat": -35.1833, "lon": 117.8833, "alt": 103.0, "name": "ECLIPSE ISLAND"}, {"id": "ASN00009789", "lat": -33.83, "lon": 121.8925, "alt": 25.0, "name": "ESPERANCE"}, {"id": "ASN00009842", "lat": -33.7964, "lon": 115.6658, "alt": 130.0, "name": "JARRAHWOOD"}, {"id": "ASN00009843", "lat": -34.4417, "lon": 116.9944, "alt": 230.0, "name": "FRANKLAND VINEYARDS"}, {"id": "ASN00010007", "lat": -30.8081, "lon": 117.8603, "alt": 359.0, "name": "BENCUBBIN"}, {"id": "ASN00010035", "lat": -31.6494, "lon": 117.2331, "alt": 220.0, "name": "CUNDERDIN"}, {"id": "ASN00010073", "lat": -31.6183, "lon": 117.7217, "alt": 250.0, "name": "KELLERBERRIN"}, {"id": "ASN00010092", "lat": -31.4756, "lon": 118.2789, "alt": 315.0, "name": "MERREDIN"}, {"id": "ASN00010093", "lat": -31.4994, "lon": 118.2242, "alt": 318.0, "name": "MERREDIN RESEARCH STATION"}, {"id": "ASN00010144", "lat": -31.8836, "lon": 116.7581, "alt": 174.0, "name": "YORK POST OFFICE"}, {"id": "ASN00010152", "lat": -31.75, "lon": 116.6833, "alt": 166.0, "name": "MURESK INSTITUTE"}, {"id": "ASN00010244", "lat": -31.7469, "lon": 116.4561, "alt": 330.0, "name": "BAKERS HILL"}, {"id": "ASN00010536", "lat": -32.3292, "lon": 117.8733, "alt": 295.0, "name": "CORRIGIN"}, {"id": "ASN00010554", "lat": -33.8167, "lon": 117.1667, "alt": 330.0, "name": "GLEN LOSSIE"}, {"id": "ASN00010579", "lat": -33.6886, "lon": 117.5553, "alt": 310.0, "name": "KATANNING COMPARISON"}, {"id": "ASN00010582", "lat": -33.83, "lon": 117.159, "alt": 305.0, "name": "KOJONUP"}, {"id": "ASN00010592", "lat": -33.1006, "lon": 118.4625, "alt": 286.0, "name": "LAKE GRACE COMPARISON"}, {"id": "ASN00010614", "lat": -32.9342, "lon": 117.1797, "alt": 338.0, "name": "NARROGIN"}, {"id": "ASN00010622", "lat": -33.9634, "lon": 118.4788, "alt": 286.0, "name": "ONGERUP"}, {"id": "ASN00010633", "lat": -33.5803, "lon": 120.0458, "alt": 232.0, "name": "RAVENSTHORPE"}, {"id": "ASN00010648", "lat": -32.6814, "lon": 116.6756, "alt": 280.0, "name": "WANDERING COMPARISON"}, {"id": "ASN00011003", "lat": -31.6797, "lon": 128.8958, "alt": 93.1, "name": "EUCLA"}, {"id": "ASN00011004", "lat": -30.8389, "lon": 128.1139, "alt": 156.0, "name": "FORREST AERO"}, {"id": "ASN00011013", "lat": -31.0119, "lon": 125.3294, "alt": 182.0, "name": "RAWLINNA"}, {"id": "ASN00011017", "lat": -32.4569, "lon": 123.8653, "alt": 151.0, "name": "BALLADONIA"}, {"id": "ASN00012038", "lat": -30.7847, "lon": 121.4533, "alt": 365.3, "name": "KALGOORLIE-BOULDER AIRPORT"}, {"id": "ASN00012045", "lat": -28.6303, "lon": 122.4072, "alt": 461.0, "name": "LAVERTON"}, {"id": "ASN00012046", "lat": -28.8879, "lon": 121.3302, "alt": 376.0, "name": "LEONORA"}, {"id": "ASN00012052", "lat": -29.6939, "lon": 121.0297, "alt": 425.9, "name": "MENZIES"}, {"id": "ASN00012065", "lat": -32.1981, "lon": 121.7794, "alt": 277.0, "name": "NORSEMAN"}, {"id": "ASN00012071", "lat": -32.9869, "lon": 121.6239, "alt": 249.0, "name": "SALMON GUMS RES.STN."}, {"id": "ASN00012074", "lat": -31.2319, "lon": 119.3281, "alt": 355.0, "name": "SOUTHERN CROSS"}, {"id": "ASN00012090", "lat": -27.2842, "lon": 120.0931, "alt": 487.0, "name": "YEELIRRIE"}, {"id": "ASN00012219", "lat": -28.1664, "lon": 123.6556, "alt": 441.6, "name": "YAMARNA"}, {"id": "ASN00012281", "lat": -33.5969, "lon": 120.7578, "alt": 210.0, "name": "MUNGLINUP MELALEUCA"}, {"id": "ASN00013012", "lat": -26.5914, "lon": 120.2258, "alt": 521.0, "name": "WILUNA"}, {"id": "ASN00013017", "lat": -25.0341, "lon": 128.301, "alt": 598.0, "name": "GILES METEOROLOGICAL OFFICE"}, {"id": "ASN00013030", "lat": -21.7125, "lon": 122.2281, "alt": 291.9, "name": "TELFER AERO"}, {"id": "ASN00014008", "lat": -11.3167, "lon": 131.7667, "alt": 19.0, "name": "CAPE DON"}, {"id": "ASN00014011", "lat": -11.1456, "lon": 132.5688, "alt": 35.0, "name": "MINJILANG"}, {"id": "ASN00014015", "lat": -12.4239, "lon": 130.8925, "alt": 30.4, "name": "DARWIN AIRPORT"}, {"id": "ASN00014042", "lat": -12.3236, "lon": 133.0579, "alt": 6.7, "name": "OENPELLI"}, {"id": "ASN00014090", "lat": -12.5782, "lon": 131.3145, "alt": 10.0, "name": "MIDDLE POINT RANGERS"}, {"id": "ASN00014103", "lat": -11.4258, "lon": 130.6758, "alt": 5.0, "name": "MILIKAPITI"}, {"id": "ASN00014151", "lat": -13.2167, "lon": 131.0, "alt": 152.0, "name": "MILTON SPRINGS"}, {"id": "ASN00014161", "lat": -12.4667, "lon": 130.8333, "alt": 27.4, "name": "DARWIN REGIONAL OFFICE"}, {"id": "ASN00014187", "lat": -12.65, "lon": 130.3667, "alt": 2.7, "name": "GROSE ISLAND"}, {"id": "ASN00014198", "lat": -12.6592, "lon": 132.894, "alt": 26.5, "name": "JABIRU AIRPORT"}, {"id": "ASN00014400", "lat": -12.0482, "lon": 134.2263, "alt": 11.0, "name": "MANINGRIDA"}, {"id": "ASN00014401", "lat": -11.65, "lon": 133.3797, "alt": 19.2, "name": "WARRUWI AIRPORT"}, {"id": "ASN00014402", "lat": -12.1239, "lon": 134.9078, "alt": 4.0, "name": "MILINGIMBI"}, {"id": "ASN00014502", "lat": -12.25, "lon": 136.8833, "alt": 9.4, "name": "YIRRKALA MISSION"}, {"id": "ASN00014504", "lat": -12.028, "lon": 135.5648, "alt": 18.0, "name": "GALIWINKU"}, {"id": "ASN00014506", "lat": -13.9833, "lon": 136.4333, "alt": 14.0, "name": "ANGURUGU"}, {"id": "ASN00014508", "lat": -12.2741, "lon": 136.8201, "alt": 51.6, "name": "GOVE AIRPORT"}, {"id": "ASN00014513", "lat": -12.1933, "lon": 136.71, "alt": 7.0, "name": "WALLABY BEACH"}, {"id": "ASN00014609", "lat": -14.7295, "lon": 134.7274, "alt": 34.0, "name": "NGUKURR"}, {"id": "ASN00014618", "lat": -16.2529, "lon": 133.37, "alt": 211.8, "name": "DALY WATERS"}, {"id": "ASN00014626", "lat": -16.2637, "lon": 133.3782, "alt": 209.8, "name": "DALY WATERS AIRSTRIP"}, {"id": "ASN00014629", "lat": -13.6667, "lon": 134.3333, "alt": 192.0, "name": "BULMAN"}, {"id": "ASN00014635", "lat": -16.3167, "lon": 133.3833, "alt": 218.0, "name": "DALY WATERS HI-WAY INN"}, {"id": "ASN00014703", "lat": -15.7426, "lon": 136.8192, "alt": 12.2, "name": "CENTRE ISLAND"}, {"id": "ASN00014704", "lat": -16.4423, "lon": 136.076, "alt": 40.0, "name": "MCARTHUR RIVER MINE AIRPORT"}, {"id": "ASN00014710", "lat": -16.0667, "lon": 136.3, "alt": 17.0, "name": "BORROLOOLA"}, {"id": "ASN00014711", "lat": -15.8333, "lon": 137.05, "alt": 4.0, "name": "VANDERLIN ISLAND MIMETS"}, {"id": "ASN00014825", "lat": -16.403, "lon": 131.0145, "alt": 88.5, "name": "VICTORIA RIVER DOWNS"}, {"id": "ASN00014829", "lat": -18.3324, "lon": 130.6361, "alt": 315.6, "name": "LAJAMANU AIRPORT"}, {"id": "ASN00014837", "lat": -15.4167, "lon": 129.1667, "alt": 20.0, "name": "KEEP RIVER NTA"}, {"id": "ASN00014901", "lat": -13.8345, "lon": 131.1872, "alt": 42.8, "name": "DOUGLAS RIVER RESEARCH FARM"}, {"id": "ASN00014902", "lat": -14.4589, "lon": 132.2572, "alt": 106.9, "name": "KATHERINE COUNCIL"}, {"id": "ASN00014903", "lat": -14.4437, "lon": 132.2737, "alt": 108.0, "name": "KATHERINE AVIATION MUSEUM"}, {"id": "ASN00014908", "lat": -13.6817, "lon": 130.6367, "alt": 15.0, "name": "WOOLIANA"}, {"id": "ASN00014925", "lat": -13.7352, "lon": 131.0437, "alt": 73.0, "name": "TIPPERARY"}, {"id": "ASN00014933", "lat": -13.8241, "lon": 131.8372, "alt": 189.0, "name": "PINE CREEK"}, {"id": "ASN00014938", "lat": -13.7379, "lon": 130.6834, "alt": 15.2, "name": "MANGO FARM"}, {"id": "ASN00015034", "lat": -19.8983, "lon": 136.3358, "alt": 240.0, "name": "WONARAH"}, {"id": "ASN00015085", "lat": -18.637, "lon": 135.945, "alt": 218.0, "name": "BRUNETTE DOWNS"}, {"id": "ASN00015087", "lat": -19.6475, "lon": 134.1896, "alt": 376.5, "name": "TENNANT CREEK POST OFFICE"}, {"id": "ASN00015089", "lat": -17.3833, "lon": 133.4, "alt": 210.0, "name": "NEWCASTLE WATERS POST OFFICE"}, {"id": "ASN00015131", "lat": -17.5552, "lon": 133.5439, "alt": 220.0, "name": "ELLIOTT"}, {"id": "ASN00015135", "lat": -19.6423, "lon": 134.1833, "alt": 375.7, "name": "TENNANT CREEK AIRPORT"}, {"id": "ASN00015525", "lat": -21.5317, "lon": 133.8901, "alt": 510.5, "name": "BARROW CREEK"}, {"id": "ASN00015526", "lat": -25.5833, "lon": 134.5667, "alt": 267.0, "name": "FINKE POST OFFICE"}, {"id": "ASN00015527", "lat": -25.34, "lon": 131.0583, "alt": 526.0, "name": "AYERS ROCK"}, {"id": "ASN00015540", "lat": -23.71, "lon": 133.87, "alt": 580.0, "name": "ALICESPRINGSPOST"}, {"id": "ASN00015548", "lat": -20.1883, "lon": 130.0161, "alt": 340.0, "name": "RABBIT FLAT"}, {"id": "ASN00015590", "lat": -23.7951, "lon": 133.889, "alt": 546.0, "name": "ALICE SPRINGS AIRPORT"}, {"id": "ASN00015602", "lat": -22.9494, "lon": 136.1442, "alt": 328.0, "name": "JERVOIS"}, {"id": "ASN00015603", "lat": -25.8428, "lon": 133.3027, "alt": 508.6, "name": "KULGERA"}, {"id": "ASN00016001", "lat": -31.1558, "lon": 136.8054, "alt": 166.6, "name": "WOOMERA AERODROME"}, {"id": "ASN00016013", "lat": -26.2925, "lon": 132.1283, "alt": 676.0, "name": "ERNABELLA"}, {"id": "ASN00016044", "lat": -30.7111, "lon": 134.5694, "alt": 119.5, "name": "TARCOOLA"}, {"id": "ASN00016081", "lat": -31.8953, "lon": 137.7144, "alt": 31.0, "name": "LAKE TORRENS"}, {"id": "ASN00017005", "lat": -30.4667, "lon": 138.4075, "alt": 194.0, "name": "LEIGH CREEK AERO"}, {"id": "ASN00017024", "lat": -30.07, "lon": 138.27, "alt": 91.0, "name": "FARINA"}, {"id": "ASN00017031", "lat": -29.6451, "lon": 138.0639, "alt": 49.0, "name": "MARREE"}, {"id": "ASN00017043", "lat": -27.5553, "lon": 135.4456, "alt": 116.5, "name": "OODNADATTA AIRPORT"}, {"id": "ASN00017096", "lat": -28.1125, "lon": 140.2102, "alt": 39.0, "name": "MOOMBA"}, {"id": "ASN00017110", "lat": -30.5963, "lon": 138.4219, "alt": 258.8, "name": "LEIGH CREEK AIRPORT"}, {"id": "ASN00018012", "lat": -32.1297, "lon": 133.6976, "alt": 15.3, "name": "CEDUNA AMO"}, {"id": "ASN00018014", "lat": -33.7011, "lon": 136.4937, "alt": 193.0, "name": "CLEVE"}, {"id": "ASN00018030", "lat": -31.99, "lon": 132.4372, "alt": 3.0, "name": "FOWLERS BAY"}, {"id": "ASN00018044", "lat": -33.1337, "lon": 135.5521, "alt": 59.0, "name": "KYANCUTTA"}, {"id": "ASN00018052", "lat": -32.8361, "lon": 135.15, "alt": 168.0, "name": "MINNIPA AGRICULTURAL CENTRE"}, {"id": "ASN00018069", "lat": -33.6501, "lon": 134.888, "alt": 7.0, "name": "ELLISTON"}, {"id": "ASN00018070", "lat": -34.7225, "lon": 135.8558, "alt": 4.0, "name": "PORT LINCOLN"}, {"id": "ASN00018079", "lat": -32.8084, "lon": 134.1979, "alt": 45.0, "name": "STREAKY BAY"}, {"id": "ASN00018103", "lat": -33.0303, "lon": 137.5328, "alt": 13.1, "name": "WHYALLA (NORRIE)"}, {"id": "ASN00018110", "lat": -30.6143, "lon": 130.4136, "alt": 120.0, "name": "COOK"}, {"id": "ASN00018114", "lat": -30.1591, "lon": 131.579, "alt": 290.0, "name": "MARALINGA"}, {"id": "ASN00018115", "lat": -35.3365, "lon": 136.1174, "alt": 32.0, "name": "NEPTUNE ISLAND"}, {"id": "ASN00018139", "lat": -33.5085, "lon": 135.2928, "alt": 37.0, "name": "POLDA (GUM VIEW)"}, {"id": "ASN00018181", "lat": -34.4906, "lon": 135.8511, "alt": 95.0, "name": "PORT LINCOLN (TOD RIVER)"}, {"id": "ASN00019036", "lat": -32.5, "lon": 137.7667, "alt": 5.0, "name": "PORT AUGUSTA POST OFFICE"}, {"id": "ASN00019062", "lat": -33.0276, "lon": 138.756, "alt": 521.0, "name": "YONGALA"}, {"id": "ASN00019066", "lat": -32.528, "lon": 137.79, "alt": 7.0, "name": "PORT AUGUSTA POWER STATION"}, {"id": "ASN00020026", "lat": -32.5819, "lon": 139.5611, "alt": 303.0, "name": "YUNTA"}, {"id": "ASN00021008", "lat": -33.2758, "lon": 138.575, "alt": 458.0, "name": "BUNDALEER FOREST RESERVE"}, {"id": "ASN00021014", "lat": -33.8364, "lon": 138.6125, "alt": 385.0, "name": "CLARE POST OFFICE"}, {"id": "ASN00021020", "lat": -33.359, "lon": 138.393, "alt": 273.0, "name": "GEORGETOWN"}, {"id": "ASN00021043", "lat": -33.1708, "lon": 138.0104, "alt": 2.0, "name": "PORT PIRIE NYRSTAR COMPARISON"}, {"id": "ASN00021046", "lat": -33.7844, "lon": 138.2133, "alt": 103.0, "name": "SNOWTOWN"}, {"id": "ASN00022006", "lat": -33.9551, "lon": 137.6953, "alt": 44.0, "name": "KADINA"}, {"id": "ASN00022008", "lat": -34.3745, "lon": 137.6733, "alt": 185.0, "name": "MAITLAND"}, {"id": "ASN00022015", "lat": -34.2971, "lon": 138.0014, "alt": 2.0, "name": "PRICE"}, {"id": "ASN00022029", "lat": -35.3725, "lon": 136.8594, "alt": 80.0, "name": "ALTHORPE ISLAND"}, {"id": "ASN00022030", "lat": -35.1167, "lon": 137.8333, "alt": 3.0, "name": "TROUBRIDGE SHOAL LIGHTHOUSE"}, {"id": "ASN00022801", "lat": -35.7529, "lon": 136.5938, "alt": 143.0, "name": "CAPE BORDA COMPARISON"}, {"id": "ASN00022802", "lat": -36.0667, "lon": 136.7, "alt": 75.0, "name": "CAPE DE COUEDIC"}, {"id": "ASN00022803", "lat": -35.8426, "lon": 138.1327, "alt": 55.0, "name": "CAPE WILLOUGHBY"}, {"id": "ASN00022807", "lat": -35.656, "lon": 137.6377, "alt": 18.0, "name": "KINGSCOTE"}, {"id": "ASN00022814", "lat": -35.8, "lon": 137.3333, "alt": 155.0, "name": "PARNDANA EAST RESEARCH STATION"}, {"id": "ASN00023000", "lat": -34.9257, "lon": 138.5832, "alt": 29.3, "name": "ADELAIDE (WEST TERRACE / NGAYI"}, {"id": "ASN00023013", "lat": -34.7977, "lon": 138.6281, "alt": 9.5, "name": "PARAFIELD AIRPORT"}, {"id": "ASN00023015", "lat": -34.7333, "lon": 138.65, "alt": 24.0, "name": "PENFIELD WEAPONS RESEARCH"}, {"id": "ASN00023020", "lat": -34.5267, "lon": 138.6883, "alt": 68.0, "name": "ROSEWORTHY AGRIC COLLEGE"}, {"id": "ASN00023031", "lat": -34.9697, "lon": 138.6331, "alt": 115.0, "name": "ADELAIDE (WAITE INSTITUTE)"}, {"id": "ASN00023034", "lat": -34.9524, "lon": 138.5196, "alt": 2.0, "name": "ADELAIDE AIRPORT"}, {"id": "ASN00023037", "lat": -34.7833, "lon": 138.6242, "alt": 16.0, "name": "ADELAIDE (PARAFIELD PLANT INTR"}, {"id": "ASN00023057", "lat": -34.8533, "lon": 138.6517, "alt": 77.0, "name": "ADELAIDE (NORTHFIELD RESEARCH"}, {"id": "ASN00023073", "lat": -34.4167, "lon": 138.5, "alt": 44.0, "name": "MALLALA AERO"}, {"id": "ASN00023083", "lat": -34.7111, "lon": 138.6222, "alt": 16.5, "name": "EDINBURGH RAAF"}, {"id": "ASN00023090", "lat": -34.9211, "lon": 138.6216, "alt": 48.0, "name": "ADELAIDE (KENT TOWN)"}, {"id": "ASN00023307", "lat": -34.3412, "lon": 138.9155, "alt": 245.0, "name": "KAPUNDA"}, {"id": "ASN00023321", "lat": -34.4767, "lon": 139.0047, "alt": 274.0, "name": "NURIOOTPA COMPARISON"}, {"id": "ASN00023343", "lat": -34.5519, "lon": 138.8342, "alt": 116.0, "name": "ROSEDALE (TURRETFIELD RESEARCH"}, {"id": "ASN00023703", "lat": -35.0042, "lon": 138.6147, "alt": 305.0, "name": "BELAIR (KALYRA)"}, {"id": "ASN00023733", "lat": -35.0732, "lon": 138.8466, "alt": 359.0, "name": "MOUNT BARKER"}, {"id": "ASN00023738", "lat": -35.3912, "lon": 138.4642, "alt": 216.0, "name": "MYPONGA"}, {"id": "ASN00023745", "lat": -35.0333, "lon": 138.7167, "alt": 496.2, "name": "STIRLING"}, {"id": "ASN00023747", "lat": -35.256, "lon": 138.8901, "alt": 70.0, "name": "STRATHALBYN"}, {"id": "ASN00023763", "lat": -34.7122, "lon": 138.9469, "alt": 395.0, "name": "MOUNT CRAWFORD FOREST HEADQUAR"}, {"id": "ASN00023801", "lat": -34.9482, "lon": 138.8071, "alt": 480.0, "name": "LENSWOOD"}, {"id": "ASN00024002", "lat": -34.2833, "lon": 140.6, "alt": 65.5, "name": "BERRI IRRIGATION"}, {"id": "ASN00024016", "lat": -34.1711, "lon": 140.7494, "alt": 20.0, "name": "RENMARK"}, {"id": "ASN00024018", "lat": -34.1778, "lon": 139.9806, "alt": 25.0, "name": "WAIKERIE"}, {"id": "ASN00024023", "lat": -34.4333, "lon": 140.6, "alt": 66.0, "name": "LOXTON RESEARCH CENTRE"}, {"id": "ASN00024025", "lat": -34.2717, "lon": 140.5964, "alt": 50.0, "name": "BERRI"}, {"id": "ASN00024033", "lat": -34.1847, "lon": 140.0242, "alt": 54.9, "name": "WAIKERIE AERO"}, {"id": "ASN00024041", "lat": -34.1944, "lon": 139.9378, "alt": 65.0, "name": "WAIKERIE (GOLDEN HEIGHTS)"}, {"id": "ASN00024536", "lat": -35.2546, "lon": 139.4542, "alt": 21.0, "name": "TAILEM BEND"}, {"id": "ASN00025034", "lat": -34.7797, "lon": 140.2733, "alt": 77.0, "name": "LOXTON (WANBI RESEARCH CENTRE)"}, {"id": "ASN00025050", "lat": -34.6345, "lon": 140.2432, "alt": 68.0, "name": "CALIPH"}, {"id": "ASN00025507", "lat": -36.098, "lon": 140.3556, "alt": 29.0, "name": "KEITH"}, {"id": "ASN00025509", "lat": -35.3288, "lon": 140.5175, "alt": 99.0, "name": "LAMEROO"}, {"id": "ASN00026005", "lat": -38.0573, "lon": 140.6725, "alt": 5.0, "name": "CAPE NORTHUMBERLAND"}, {"id": "ASN00026013", "lat": -36.8803, "lon": 140.9286, "alt": 95.0, "name": "KYBYBOLITE RESEARCH CENTRE"}, {"id": "ASN00026016", "lat": -36.9731, "lon": 140.3664, "alt": 30.0, "name": "LUCINDALE POST OFFICE"}, {"id": "ASN00026019", "lat": -37.5575, "lon": 140.4197, "alt": 65.0, "name": "MOUNT BURR FOREST RESERVE"}, {"id": "ASN00026021", "lat": -37.7473, "lon": 140.7739, "alt": 63.0, "name": "MOUNT GAMBIER AERO"}, {"id": "ASN00026023", "lat": -36.9564, "lon": 140.7402, "alt": 58.0, "name": "NARACOORTE"}, {"id": "ASN00026026", "lat": -37.1628, "lon": 139.756, "alt": 3.3, "name": "ROBE"}, {"id": "ASN00026044", "lat": -36.95, "lon": 139.5833, "alt": 14.0, "name": "CAPE JAFFA LIGHTHOUSE"}, {"id": "ASN00026070", "lat": -37.2667, "lon": 140.1167, "alt": 11.0, "name": "KONETTA E&WS"}, {"id": "ASN00026082", "lat": -37.0951, "lon": 140.7911, "alt": 65.0, "name": "STRUAN"}, {"id": "ASN00026089", "lat": -36.5958, "lon": 140.4864, "alt": 37.0, "name": "PADTHAWAY"}, {"id": "ASN00027005", "lat": -13.9447, "lon": 143.2006, "alt": 199.0, "name": "COEN POST OFFICE"}, {"id": "ASN00027006", "lat": -13.7642, "lon": 143.1178, "alt": 160.5, "name": "COEN AIRPORT EVAP"}, {"id": "ASN00027015", "lat": -12.4536, "lon": 142.6389, "alt": 40.0, "name": "MORETON TELEGRAPH STATION"}, {"id": "ASN00027022", "lat": -10.5853, "lon": 142.21, "alt": 57.6, "name": "THURSDAY ISLAND MO"}, {"id": "ASN00027042", "lat": -12.6267, "lon": 141.8836, "alt": 20.0, "name": "WEIPA EASTERN AVE"}, {"id": "ASN00028004", "lat": -15.9999, "lon": 144.0754, "alt": 203.8, "name": "PALMERVILLE"}, {"id": "ASN00028008", "lat": -12.785, "lon": 143.3047, "alt": 18.5, "name": "LOCKHART RIVER AIRPORT"}, {"id": "ASN00029004", "lat": -17.7425, "lon": 139.5475, "alt": 5.5, "name": "BURKETOWN POST OFFICE"}, {"id": "ASN00029009", "lat": -20.6717, "lon": 140.5083, "alt": 189.0, "name": "CLONCURRY AERO"}, {"id": "ASN00029012", "lat": -18.2044, "lon": 142.2447, "alt": 115.5, "name": "CROYDON TOWNSHIP"}, {"id": "ASN00029028", "lat": -17.4553, "lon": 140.8314, "alt": 2.0, "name": "KARUMBA AIRPORT"}, {"id": "ASN00029039", "lat": -16.664, "lon": 139.1837, "alt": 8.5, "name": "MORNINGTON ISLAND"}, {"id": "ASN00029041", "lat": -17.6706, "lon": 141.0672, "alt": 8.4, "name": "NORMANTON POST OFFICE"}, {"id": "ASN00029090", "lat": -21.0344, "lon": 141.8008, "alt": 144.0, "name": "TOORAK RESEARCH STATION"}, {"id": "ASN00029125", "lat": -20.7333, "lon": 139.4833, "alt": 356.0, "name": "MOUNT ISA POST OFFICE"}, {"id": "ASN00029126", "lat": -20.7361, "lon": 139.4817, "alt": 381.0, "name": "MOUNT ISA MINE"}, {"id": "ASN00029127", "lat": -20.6778, "lon": 139.4875, "alt": 340.3, "name": "MOUNT ISA AERO"}, {"id": "ASN00030018", "lat": -18.2922, "lon": 143.5483, "alt": 291.7, "name": "GEORGETOWN POST OFFICE"}, {"id": "ASN00030024", "lat": -20.8447, "lon": 144.1986, "alt": 324.0, "name": "HUGHENDEN POST OFFICE"}, {"id": "ASN00030036", "lat": -18.1472, "lon": 144.3183, "alt": 462.0, "name": "MOUNT SURPRISE TOWNSHIP"}, {"id": "ASN00030045", "lat": -20.7289, "lon": 143.1425, "alt": 211.1, "name": "RICHMOND POST OFFICE"}, {"id": "ASN00031011", "lat": -16.8736, "lon": 145.7458, "alt": 2.2, "name": "CAIRNS AERO"}, {"id": "ASN00031016", "lat": -15.4633, "lon": 145.25, "alt": 6.0, "name": "COOKTOWN POST OFFICE"}, {"id": "ASN00031017", "lat": -15.4486, "lon": 145.1861, "alt": 14.0, "name": "COOKTOWN MISSION STRIP"}, {"id": "ASN00031029", "lat": -17.3803, "lon": 145.3884, "alt": 909.0, "name": "HERBERTON MOWBRAY RD"}, {"id": "ASN00031034", "lat": -17.2186, "lon": 145.565, "alt": 717.0, "name": "KAIRI RESEARCH STATION"}, {"id": "ASN00031037", "lat": -16.3842, "lon": 145.5592, "alt": 2.9, "name": "LOW ISLES LIGHTHOUSE"}, {"id": "ASN00031066", "lat": -16.995, "lon": 145.4253, "alt": 400.0, "name": "MAREEBA QWRC"}, {"id": "ASN00031076", "lat": -17.1467, "lon": 145.24, "alt": 485.0, "name": "PARADA RESEARCH STATION"}, {"id": "ASN00031083", "lat": -17.84, "lon": 145.5956, "alt": 760.0, "name": "KOOMBOOLOOMBA DAM"}, {"id": "ASN00031084", "lat": -16.9267, "lon": 146.0033, "alt": 124.0, "name": "FITZROY ISLAND LIGHTHOUSE"}, {"id": "ASN00031108", "lat": -17.1347, "lon": 145.4281, "alt": 594.0, "name": "WALKAMIN RESEARCH STATION"}, {"id": "ASN00032004", "lat": -18.2544, "lon": 146.0192, "alt": 5.0, "name": "CARDWELL MARINE PDE"}, {"id": "ASN00032005", "lat": -19.1833, "lon": 147.0167, "alt": 58.0, "name": "CAPE CLEVELAND LIGHTHOUSE"}, {"id": "ASN00032025", "lat": -17.5249, "lon": 146.0345, "alt": 10.0, "name": "INNISFAIL"}, {"id": "ASN00032037", "lat": -17.6053, "lon": 145.9972, "alt": 18.3, "name": "SOUTH JOHNSTONE EXP STN"}, {"id": "ASN00032040", "lat": -19.2483, "lon": 146.7661, "alt": 4.3, "name": "TOWNSVILLE AERO"}, {"id": "ASN00032061", "lat": -17.5333, "lon": 145.9667, "alt": 40.0, "name": "BOTTOM OF PIN GIN HILL"}, {"id": "ASN00032084", "lat": -19.3, "lon": 146.7833, "alt": 40.0, "name": "ROSS RIVER"}, {"id": "ASN00032141", "lat": -18.5203, "lon": 146.3861, "alt": 10.0, "name": "LUCINDA POINT"}, {"id": "ASN00033002", "lat": -19.6169, "lon": 147.3758, "alt": 17.0, "name": "AYR DPI RESEARCH STN"}, {"id": "ASN00033007", "lat": -20.0167, "lon": 148.25, "alt": 6.0, "name": "BOWEN POST OFFICE"}, {"id": "ASN00033013", "lat": -20.5533, "lon": 147.8464, "alt": 196.0, "name": "COLLINSVILLE POST OFFICE"}, {"id": "ASN00033031", "lat": -20.0564, "lon": 148.8881, "alt": 2.4, "name": "HAYMAN ISLAND RESORT"}, {"id": "ASN00033045", "lat": -21.1706, "lon": 149.1794, "alt": 4.7, "name": "MACKAY AERO"}, {"id": "ASN00033047", "lat": -21.1642, "lon": 149.1192, "alt": 13.0, "name": "TE KOWAI EXP STN"}, {"id": "ASN00033058", "lat": -21.6667, "lon": 150.2167, "alt": 58.0, "name": "PINE ISLET LIGHTHOUSE"}, {"id": "ASN00033065", "lat": -22.3458, "lon": 149.5356, "alt": 17.8, "name": "ST LAWRENCE POST OFFICE"}, {"id": "ASN00033090", "lat": -20.0464, "lon": 147.2739, "alt": 45.4, "name": "MILLAROO DPI"}, {"id": "ASN00033119", "lat": -21.1172, "lon": 149.2169, "alt": 30.3, "name": "MACKAY M.O"}, {"id": "ASN00034002", "lat": -20.0781, "lon": 146.2614, "alt": 309.8, "name": "CHARTERS TOWERS POST OFFICE"}, {"id": "ASN00035019", "lat": -22.825, "lon": 147.6408, "alt": 273.0, "name": "CLERMONT POST OFFICE"}, {"id": "ASN00035027", "lat": -23.5267, "lon": 148.1617, "alt": 178.9, "name": "EMERALD POST OFFICE"}, {"id": "ASN00035069", "lat": -24.8819, "lon": 146.2564, "alt": 395.1, "name": "TAMBO POST OFFICE"}, {"id": "ASN00035070", "lat": -25.6408, "lon": 149.7958, "alt": 199.0, "name": "TAROOM POST OFFICE"}, {"id": "ASN00035149", "lat": -24.8353, "lon": 149.8003, "alt": 168.0, "name": "BRIGALOW RESEARCH STN"}, {"id": "ASN00036007", "lat": -23.5544, "lon": 145.2883, "alt": 266.9, "name": "BARCALDINE POST OFFICE"}, {"id": "ASN00036026", "lat": -24.2591, "lon": 144.4406, "alt": 203.0, "name": "ISISFORD POST OFFICE"},